Nombre,Código UTA 2020,Latitud,Longitud,Provincia,Población INDEC,Hogares con agua de red pública,Hogares con desague de cloaca a red pública,Hogares con red de gas,Hogares con heladera,"Total de hogares para variable agua de red pública, gas y heladera",Total de hogares para variable cloaca a red pública,Hogares con tenencia irregular de terreno o vivienda,Cantidad total de viviendas,Hogares con déficit habitacional cuantitativo simple,Hogares con déficit habitacional cuantitativo compuesto,Viviendas irrecuperables,Hogares con Necesidades Básicas Insatisfechas,Hogares con hacinamiento crítico
san jeronimo,82105,-32.2399352,-61.231266,santa fe,80840.0,84.0,40.0,28.0,94.0,25662.0,25711.0,12.0,24356.0,5.0,7.0,521.0,6.0,3.0
yavi,38112,-22.32981174,-65.82598231,jujuy,20806.0,87.0,51.0,0.0,59.0,5625.0,5668.0,14.0,4793.0,14.0,34.0,1106.0,16.0,6.0
el cuy,62035,-39.866718292,-68.703437805,rio negro,5280.0,53.0,0.0,0.0,70.0,1869.0,1872.0,12.0,1749.0,6.0,14.0,148.0,18.0,6.0
pergamino,6623,-33.5893048,-60.7727646,buenos aires,104590.0,91.0,66.0,39.0,96.0,34768.0,34817.0,10.0,33511.0,3.0,5.0,617.0,4.0,2.0
villa gesell,6868,-37.336673158,-57.032501469,buenos aires,31730.0,89.0,48.0,43.0,95.0,10374.0,10508.0,14.0,9971.0,3.0,7.0,424.0,8.0,4.0
general paz,6343,-35.451905725,-58.269541772,buenos aires,11202.0,71.0,42.0,55.0,97.0,3782.0,3789.0,10.0,3647.0,3.0,6.0,118.0,4.0,2.0
atreuco,42007,-37.126296112,-63.82921122,la pampa,10153.0,89.0,35.0,83.0,97.0,3586.0,3605.0,8.0,3499.0,2.0,2.0,19.0,1.0,0.0
25 de mayo,62091,-41.5127138,-69.51735638,rio negro,15743.0,86.0,3.0,51.0,74.0,4673.0,4701.0,14.0,4511.0,3.0,7.0,180.0,12.0,5.0
rawson,70077,-31.6492,-68.5015,san juan,114368.0,94.0,13.0,60.0,94.0,29520.0,29534.0,20.0,26331.0,10.0,16.0,1760.0,9.0,5.0
general juan madariaga,6315,-37.024627686,-56.956073761,buenos aires,19747.0,41.0,49.0,86.0,98.0,6332.0,6342.0,14.0,6162.0,2.0,5.0,158.0,7.0,3.0
presidencia de la plaza,22119,-26.84889313,-59.87023116,chaco,12499.0,81.0,29.0,0.0,74.0,3416.0,3422.0,28.0,3184.0,6.0,14.0,269.0,20.0,8.0
albardon,70007,-31.326969147,-68.417236328,san juan,23888.0,94.0,11.0,19.0,89.0,5863.0,5874.0,24.0,5398.0,7.0,18.0,603.0,15.0,7.0
punta indio,6655,-35.350566,-57.297616,buenos aires,9888.0,76.0,52.0,69.0,97.0,3413.0,3431.0,10.0,3361.0,1.0,6.0,185.0,6.0,1.0
lezama,6466,-35.874824873,-57.896422676,buenos aires,,,,,,,,,,,,,,
tolhuin,94035,-54.511386755,-67.195804464,tierra del fuego antartida e islas del atlantico sur,,,,,,,,,,,,,,
castro barros,46021,-28.9634753,-66.99905992,la rioja,4268.0,98.0,0.0,0.0,92.0,1328.0,1334.0,10.0,1302.0,1.0,3.0,24.0,5.0,2.0
general san martin,46091,-31.692226058,-65.886039021,la rioja,4944.0,75.0,0.0,0.0,74.0,1297.0,1303.0,11.0,1269.0,2.0,8.0,86.0,22.0,9.0
zarate,6882,-33.9804188,-59.2846864,buenos aires,114269.0,93.0,62.0,59.0,96.0,34013.0,34051.0,12.0,31115.0,8.0,13.0,1631.0,9.0,4.0
9 de julio,22105,-27.017018676,-61.187428084,chaco,28555.0,13.0,0.0,0.0,79.0,7798.0,7810.0,21.0,7416.0,4.0,12.0,608.0,20.0,5.0
jimenez,86091,-26.688954306,-64.454471239,santiago del estero,14352.0,62.0,0.0,0.0,74.0,3586.0,3591.0,12.0,2019.0,43.0,50.0,230.0,24.0,8.0
libertad,22077,-27.269456708,-59.211222328,chaco,12158.0,83.0,42.0,0.0,87.0,3237.0,3240.0,22.0,15129.0,4.0,9.0,2437.0,13.0,0.0
avellaneda,86028,-28.70814175,-63.1050531,santiago del estero,20763.0,46.0,0.0,0.0,56.0,4897.0,4897.0,28.0,3897.0,20.0,45.0,1205.0,28.0,12.0
rio grande,94007,-52.884128633,-68.448783124,tierra del fuego antartida e islas del atlantico sur,70042.0,93.0,90.0,91.0,95.0,21410.0,21495.0,16.0,19790.0,7.0,18.0,2399.0,15.0,2.0
rivadavia,86154,-29.83512,-62.16991,santiago del estero,5015.0,42.0,0.0,0.0,92.0,1468.0,1470.0,10.0,1379.0,6.0,9.0,44.0,8.0,1.0
comuna 7,2007,-34.63680708,-58.458269851,ciudad de buenos aires,220591.0,99.0,97.0,87.0,94.0,80628.0,81651.0,13.0,73034.0,10.0,11.0,391.0,8.0,2.0
catrilo,42028,-36.67294558,-63.66446349,la pampa,7293.0,87.0,10.0,75.0,97.0,2389.0,2395.0,8.0,2304.0,3.0,5.0,52.0,4.0,1.0
rinconada,38049,-22.53894,-65.96138,jujuy,2488.0,46.0,0.0,0.0,15.0,553.0,570.0,15.0,520.0,5.0,36.0,168.0,25.0,5.0
san blas de los sauces,46119,-28.320748457,-67.053376066,la rioja,3927.0,91.0,0.0,0.0,89.0,1087.0,1094.0,13.0,1047.0,3.0,12.0,91.0,14.0,3.0
las flores,6455,-36.3036243,-59.3193839,buenos aires,23871.0,89.0,60.0,43.0,95.0,8213.0,8230.0,11.0,7924.0,3.0,5.0,145.0,4.0,1.0
rivadavia,6679,-35.4640821,-62.8552805,buenos aires,17143.0,65.0,45.0,76.0,95.0,5483.0,5489.0,11.0,5239.0,4.0,6.0,101.0,5.0,2.0
mayor luis j fontana,22098,-27.689552867,-60.834887832,chaco,55080.0,76.0,27.0,0.0,84.0,15495.0,15515.0,21.0,14388.0,7.0,10.0,587.0,19.0,6.0
islas del atlantico sur,94021,-51.806531825,-58.959658956,tierra del fuego antartida e islas del atlantico sur,,,,,,,,,,,,,,
comuna 5,2005,-34.609227689,-58.421745225,ciudad de buenos aires,179005.0,99.0,98.0,97.0,97.0,76282.0,76999.0,11.0,73226.0,4.0,5.0,216.0,6.0,1.0
saavedra,6700,-37.724466063,-62.10173503,buenos aires,20749.0,92.0,67.0,22.0,96.0,7315.0,7354.0,7.0,7187.0,1.0,2.0,30.0,1.0,0.0
norquinco,62056,-41.68252462,-70.71325062,rio negro,1736.0,38.0,0.0,20.0,35.0,637.0,643.0,13.0,455.0,28.0,33.0,31.0,15.0,2.0
general guido,6308,-36.6656205,-58.0745242,buenos aires,2816.0,70.0,0.0,53.0,96.0,1005.0,1011.0,11.0,998.0,0.0,4.0,43.0,3.0,1.0
coronel dorrego,6189,-38.7655502,-61.4127594,buenos aires,15825.0,88.0,62.0,49.0,98.0,8097.0,5707.0,10.0,5586.0,1.0,2.0,60.0,2.0,1.0
25 de mayo,6854,-35.2813845,-60.2618183,buenos aires,35842.0,83.0,39.0,74.0,96.0,12416.0,12447.0,10.0,12029.0,3.0,5.0,0.0,4.0,2.0
9 de julio,70063,-31.702191264,-68.368622065,san juan,9307.0,84.0,5.0,0.0,88.0,2221.0,2222.0,20.0,2065.0,7.0,25.0,406.0,17.0,10.0
bermejo,22014,-26.921750385,-58.778745968,chaco,25052.0,80.0,11.0,0.0,82.0,7128.0,7152.0,23.0,6799.0,4.0,12.0,531.0,13.0,6.0
marcos juarez,14063,-32.62947464,-62.309131622,cordoba,104205.0,83.0,35.0,60.0,98.0,35476.0,35577.0,7.0,34404.0,3.0,3.0,253.0,3.0,1.0
corrientes capital,18021,-27.4064,-58.782760001,corrientes,358223.0,98.0,73.0,0.0,92.0,96993.0,97110.0,15.0,86544.0,10.0,15.0,4112.0,11.0,5.0
la plata,6441,-35.038806067,-58.059306162,buenos aires,654324.0,91.0,70.0,46.0,96.0,221313.0,221723.0,11.0,209888.0,5.0,9.0,13288.0,8.0,2.0
huiliches,58049,-39.73103584,-71.07764941,neuquen,14725.0,84.0,76.0,79.0,84.0,4222.0,4286.0,15.0,4019.0,4.0,11.0,270.0,16.0,5.0
el carmen,38014,-24.426210403,-65.107406616,jujuy,97039.0,93.0,42.0,28.0,83.0,23324.0,23357.0,17.0,19316.0,17.0,26.0,2057.0,22.0,11.0
rojas,6686,-34.2433108,-60.532499,buenos aires,23432.0,91.0,66.0,42.0,91.0,8010.0,8017.0,9.0,7717.0,3.0,4.0,107.0,3.0,1.0
la paz,10070,-28.71805191,-65.296485901,catamarca,22638.0,89.0,16.0,5.0,85.0,6093.0,6115.0,9.0,5768.0,5.0,13.0,492.0,17.0,8.0
general obligado,82049,-28.6765561,-59.7497004,santa fe,176410.0,78.0,39.0,0.0,87.0,49969.0,50048.0,16.0,45473.0,8.0,13.0,2493.0,11.0,6.0
salavina,86168,-29.034310364,-63.338746612,santiago del estero,11217.0,32.0,0.0,0.0,60.0,2718.0,2723.0,32.0,2652.0,2.0,46.0,1199.0,25.0,9.0
banda,86035,-27.59548811,-64.41117012,santiago del estero,142279.0,89.0,28.0,28.0,86.0,35244.0,35275.0,13.0,33132.0,5.0,12.0,2226.0,16.0,8.0
patagones,6602,-40.8136857,-62.6629984,buenos aires,30207.0,90.0,51.0,63.0,96.0,10183.0,10207.0,13.0,9801.0,3.0,7.0,362.0,9.0,4.0
la matanza,6427,-34.714172889,-58.508904377,buenos aires,1775816.0,72.0,45.0,52.0,93.0,484909.0,485123.0,16.0,405338.0,16.0,20.0,21724.0,11.0,5.0
esquina,18049,-30.0784368,-59.4055912,corrientes,30802.0,57.0,36.0,0.0,77.0,8108.0,8141.0,24.0,7770.0,4.0,19.0,1256.0,17.0,8.0
garay,82035,-31.1523125,-60.1365521,santa fe,20890.0,57.0,0.0,0.0,81.0,5860.0,5882.0,22.0,5571.0,4.0,11.0,388.0,14.0,9.0
merlo,6539,-34.708542242,-58.679586725,buenos aires,528494.0,45.0,20.0,48.0,95.0,147716.0,147784.0,15.0,135383.0,8.0,13.0,7227.0,11.0,5.0
robles,86161,-27.84078886,-63.93408912,santiago del estero,44415.0,83.0,1.0,0.0,73.0,10609.0,10631.0,17.0,9201.0,13.0,19.0,664.0,24.0,11.0
belen,10035,-26.94426,-66.73487,catamarca,27843.0,90.0,43.0,0.0,81.0,6817.0,6875.0,12.0,6288.0,7.0,13.0,383.0,17.0,4.0
carlos casares,6147,-35.83601,-61.43436,buenos aires,22237.0,82.0,65.0,63.0,96.0,7775.0,7799.0,9.0,7504.0,3.0,4.0,93.0,4.0,2.0
ituzaingo,6410,-34.644055116,-58.688489333,buenos aires,167824.0,13.0,8.0,56.0,96.0,51444.0,51505.0,11.0,48074.0,6.0,8.0,1079.0,4.0,2.0
monte caseros,18112,-30.47490444,-57.98344137,corrientes,36338.0,88.0,73.0,0.0,91.0,10543.0,10575.0,19.0,10119.0,4.0,12.0,850.0,12.0,4.0
lomas de zamora,6490,-34.737902715,-58.440675369,buenos aires,616279.0,97.0,30.0,22.0,96.0,188844.0,188982.0,12.0,167304.0,11.0,14.0,5614.0,8.0,4.0
9 de julio,6588,-35.6497312,-61.0228986,buenos aires,47722.0,85.0,62.0,41.0,95.0,16308.0,16344.0,9.0,15833.0,2.0,4.0,192.0,3.0,2.0
general pueyrredon,6357,-37.807662538,-57.629890858,buenos aires,618989.0,92.0,81.0,63.0,97.0,209794.0,210412.0,12.0,201039.0,4.0,6.0,4314.0,4.0,2.0
rauch,6672,-36.3845307,-59.0051146,buenos aires,15176.0,84.0,77.0,33.0,94.0,5325.0,5336.0,11.0,5200.0,2.0,3.0,55.0,2.0,1.0
molinos,66119,-25.394729614,-66.38092804,salta,5652.0,49.0,19.0,0.0,37.0,1191.0,1201.0,25.0,1105.0,7.0,59.0,620.0,26.0,7.0
canuelas,6134,-35.2637758,-58.6725328,buenos aires,51892.0,33.0,31.0,72.0,96.0,15312.0,15333.0,12.0,14650.0,4.0,11.0,674.0,10.0,5.0
general alvear,18056,-29.106201172,-56.559669495,corrientes,7926.0,85.0,17.0,0.0,84.0,24344.0,2396.0,26.0,22914.0,5.0,12.0,2912.0,12.0,4.0
comuna 15,2015,-34.592944247,-58.488671416,ciudad de buenos aires,182574.0,99.0,98.0,95.0,98.0,71948.0,72585.0,12.0,69033.0,4.0,5.0,408.0,4.0,1.0
bahia blanca,6056,-38.683874619,-62.215956312,buenos aires,301572.0,98.0,80.0,80.0,97.0,105342.0,105532.0,10.0,102037.0,3.0,5.0,1379.0,3.0,2.0
comuna 3,2003,-34.609099774,-58.40306252,ciudad de buenos aires,187537.0,99.0,98.0,95.0,95.0,79473.0,80764.0,11.0,75605.0,6.0,6.0,369.0,11.0,2.0
lujan de cuyo,50063,-33.32638993,-68.92342084,mendoza,119888.0,88.0,55.0,70.0,95.0,32233.0,32312.0,15.0,29548.0,8.0,11.0,974.0,6.0,3.0
rio seco,14112,-29.8135599,-63.75524,cordoba,13242.0,74.0,0.0,0.0,83.0,3846.0,3858.0,10.0,3688.0,4.0,9.0,226.0,14.0,7.0
san lorenzo,82119,-32.695030212,-60.730968475,santa fe,157255.0,94.0,33.0,51.0,96.0,48350.0,48418.0,12.0,44502.0,7.0,9.0,876.0,6.0,3.0
martires,26063,-43.690174103,-67.194381714,chubut,778.0,60.0,0.0,0.0,76.0,287.0,296.0,19.0,260.0,9.0,14.0,14.0,10.0,4.0
25 de mayo,22168,-26.612934657,-59.904048807,chaco,29215.0,75.0,23.0,0.0,70.0,7532.0,7538.0,22.0,6758.0,10.0,20.0,799.0,26.0,12.0
pilagas,34042,-24.9895438,-58.6912886,formosa,18399.0,52.0,0.0,0.0,72.0,4794.0,4810.0,19.0,4696.0,2.0,24.0,1053.0,18.0,9.0
simoca,90091,-27.409250259,-65.268943787,tucuman,30876.0,52.0,9.0,10.0,87.0,7875.0,7878.0,17.0,7488.0,4.0,11.0,488.0,18.0,8.0
cushamen,26014,-42.03927359,-71.56551616,chubut,20919.0,75.0,9.0,57.0,78.0,6714.0,6849.0,14.0,5968.0,11.0,16.0,376.0,11.0,3.0
cruz alta,90014,-27.0201218,-65.0182022,tucuman,180499.0,82.0,9.0,15.0,90.0,42757.0,42772.0,28.0,38650.0,9.0,15.0,2370.0,16.0,7.0
conhelo,42035,-35.961257935,-64.440666199,la pampa,14077.0,37.0,21.0,79.0,98.0,4996.0,5003.0,9.0,4893.0,2.0,6.0,45.0,2.0,0.0
libertador general san martin,22084,-26.514810346,-59.225561265,chaco,59147.0,80.0,18.0,0.0,70.0,15797.0,15821.0,24.0,3101.0,4.0,19.0,174.0,23.0,11.0
pinamar,6644,-37.164159375,-56.902791438,buenos aires,25728.0,67.0,36.0,82.0,97.0,8205.0,8326.0,9.0,7744.0,5.0,8.0,260.0,8.0,4.0
rosario de la frontera,66140,-25.89667,-64.7655,salta,28993.0,87.0,63.0,41.0,82.0,7803.0,7818.0,20.0,7029.0,9.0,14.0,355.0,14.0,5.0
rivadavia,70084,-31.528684115,-68.598203792,san juan,82641.0,96.0,26.0,72.0,95.0,21910.0,21926.0,15.0,20077.0,8.0,11.0,766.0,6.0,3.0
matacos,34028,-23.675008774,-62.312923431,formosa,14375.0,65.0,0.0,0.0,56.0,3363.0,3372.0,27.0,3202.0,4.0,16.0,384.0,31.0,16.0
rio hondo,86147,-27.60805727,-64.54365708,santiago del estero,54867.0,53.0,41.0,15.0,84.0,13567.0,13643.0,11.0,11432.0,15.0,19.0,510.0,16.0,6.0
obera,54091,-27.392909097,-55.122770418,misiones,107501.0,68.0,23.0,0.0,84.0,30016.0,30070.0,20.0,29240.0,2.0,11.0,2573.0,14.0,4.0
general lavalle,6336,-36.554420636,-57.077420575,buenos aires,3700.0,47.0,29.0,76.0,98.0,1176.0,1183.0,12.0,1146.0,2.0,6.0,47.0,7.0,3.0
san cayetano,6742,-38.674057696,-59.499359487,buenos aires,8399.0,83.0,72.0,81.0,97.0,2961.0,2968.0,8.0,2904.0,1.0,3.0,44.0,2.0,1.0
general belgrano,6301,-35.834410002,-58.477360025,buenos aires,17365.0,73.0,29.0,61.0,96.0,6008.0,6027.0,10.0,5879.0,2.0,4.0,138.0,3.0,2.0
gualeguay,30049,-33.558718237,-59.480520131,entre rios,51883.0,88.0,75.0,25.0,93.0,16153.0,16185.0,12.0,15312.0,5.0,7.0,355.0,7.0,3.0
burruyacu,90007,-26.36994,-64.78136,tucuman,36951.0,61.0,2.0,0.0,85.0,8807.0,8818.0,29.0,8394.0,4.0,13.0,818.0,22.0,7.0
santa rosa,10098,-28.045031938,-65.278456151,catamarca,12034.0,91.0,0.0,0.0,81.0,3096.0,3123.0,9.0,2914.0,5.0,9.0,121.0,15.0,7.0
tumbaya,38098,-23.832056045,-65.475578308,jujuy,4658.0,68.0,29.0,0.0,54.0,1284.0,1315.0,25.0,1149.0,10.0,27.0,217.0,18.0,5.0
dolores,6238,-36.3899064,-57.6947905,buenos aires,27042.0,74.0,41.0,77.0,96.0,9004.0,9026.0,11.0,8767.0,2.0,4.0,133.0,3.0,1.0
guatrache,42070,-37.57537932,-63.54911308,la pampa,8831.0,82.0,4.0,77.0,97.0,3202.0,3220.0,8.0,3164.0,1.0,2.0,27.0,6.0,0.0
loreto,86105,-28.476353257,-64.045073961,santiago del estero,20036.0,57.0,0.0,0.0,77.0,4782.0,4789.0,23.0,4418.0,7.0,23.0,781.0,19.0,7.0
villaguay,30113,-31.77167964,-59.570914493,entre rios,48965.0,82.0,67.0,14.0,90.0,14726.0,14748.0,16.0,14145.0,3.0,7.0,464.0,8.0,4.0
general roca,62042,-39.13837603,-66.909520748,rio negro,320921.0,93.0,71.0,83.0,95.0,99433.0,99564.0,14.0,95146.0,4.0,7.0,3224.0,9.0,4.0
la costa,6420,-36.488397629,-56.700435258,buenos aires,69633.0,25.0,65.0,42.0,93.0,23949.0,24114.0,12.0,23241.0,2.0,5.0,492.0,5.0,3.0
general guemes,66049,-24.75876236,-64.993942261,salta,47226.0,94.0,44.0,39.0,86.0,11562.0,11575.0,18.0,10540.0,8.0,12.0,455.0,15.0,7.0
rio segundo,14119,-31.597730006,-63.245539405,cordoba,103718.0,94.0,9.0,55.0,97.0,32090.0,32154.0,9.0,30976.0,3.0,4.0,276.0,4.0,2.0
lago buenos aires,78035,-46.04208374,-71.658737183,santa cruz,8750.0,90.0,76.0,74.0,89.0,2571.0,2600.0,11.0,2432.0,5.0,8.0,71.0,7.0,2.0
valcheta,62084,-41.214345515,-66.338309668,rio negro,7101.0,83.0,15.0,65.0,84.0,2053.0,2061.0,16.0,1973.0,3.0,7.0,70.0,11.0,3.0
marcos paz,6525,-34.776242,-58.9395696,buenos aires,54181.0,86.0,30.0,68.0,95.0,14656.0,14672.0,13.0,14029.0,4.0,8.0,667.0,12.0,6.0
cordoba capital,14014,-31.478788376,-64.145095825,cordoba,1329604.0,98.0,50.0,68.0,96.0,414237.0,414845.0,12.0,383594.0,7.0,8.0,5248.0,5.0,3.0
puelen,42112,-37.95782503,-67.82531198,la pampa,9468.0,87.0,72.0,80.0,92.0,2790.0,2806.0,15.0,2668.0,4.0,7.0,101.0,10.0,4.0
doctor manuel belgrano,38021,-24.029388428,-65.647422791,jujuy,265249.0,98.0,71.0,54.0,89.0,71061.0,71208.0,17.0,63119.0,11.0,15.0,2876.0,11.0,4.0
la cocha,90049,-27.756055832,-65.599121094,tucuman,19002.0,86.0,0.0,0.0,84.0,4607.0,4610.0,18.0,4189.0,9.0,14.0,233.0,20.0,9.0
ancasti,10014,-28.926935319,-65.520772291,catamarca,2917.0,40.0,0.0,0.0,77.0,786.0,795.0,11.0,756.0,3.0,12.0,69.0,25.0,5.0
la caldera,66077,-24.57701543,-65.368728969,salta,7763.0,78.0,0.0,32.0,84.0,2088.0,2097.0,17.0,1846.0,11.0,18.0,135.0,15.0,5.0
tordillo,6812,-36.4708183,-57.1914178,buenos aires,1764.0,45.0,0.0,76.0,97.0,558.0,563.0,14.0,536.0,3.0,8.0,28.0,7.0,3.0
chilecito,46042,-29.10233846,-67.60548106,la rioja,49432.0,95.0,54.0,0.0,90.0,13300.0,13350.0,11.0,12640.0,4.0,11.0,542.0,12.0,5.0
chivilcoy,6224,-34.9440654,-60.1765372,buenos aires,64185.0,82.0,54.0,51.0,96.0,22083.0,22119.0,9.0,21275.0,3.0,4.0,257.0,3.0,1.0
paso de indios,26070,-44.465560913,-68.474082947,chubut,1867.0,69.0,29.0,0.0,63.0,649.0,656.0,23.0,633.0,2.0,7.0,30.0,7.0,2.0
la rioja capital,46014,-29.725196838,-66.606086731,la rioja,180995.0,95.0,78.0,23.0,93.0,48916.0,48982.0,10.0,45779.0,6.0,10.0,1880.0,10.0,5.0
avellaneda,6035,-34.675005648,-58.310563425,buenos aires,342677.0,99.0,67.0,49.0,93.0,113142.0,113225.0,12.0,103661.0,8.0,5.0,2736.0,5.0,2.0
salta capital,66028,-24.704942034,-65.470510545,salta,536113.0,97.0,83.0,62.0,90.0,137000.0,137340.0,14.0,119603.0,12.0,16.0,5762.0,12.0,6.0
9 de julio,62049,-41.250133514,-66.896430969,rio negro,3475.0,79.0,0.0,0.0,74.0,1123.0,1131.0,20.0,979.0,12.0,18.0,63.0,16.0,4.0
general roca,14035,-34.8188719,-63.3857113,cordoba,35645.0,29.0,18.0,14.0,96.0,11608.0,11639.0,10.0,11340.0,2.0,4.0,209.0,6.0,2.0
eldorado,54042,-26.15509937,-54.58240989,misiones,78221.0,82.0,4.0,0.0,86.0,21635.0,21673.0,20.0,20841.0,3.0,10.0,1378.0,14.0,4.0
general arenales,6294,-34.3397918,-61.3746941,buenos aires,14903.0,82.0,35.0,49.0,96.0,5327.0,5341.0,10.0,5248.0,1.0,2.0,68.0,2.0,0.0
san martin,70091,-31.492270107,-68.300502855,san juan,11115.0,85.0,22.0,0.0,90.0,2675.0,2677.0,30.0,2477.0,7.0,19.0,321.0,13.0,6.0
sauce,18175,-29.988078116,-58.535707658,corrientes,9032.0,82.0,43.0,0.0,76.0,2514.0,2521.0,16.0,2470.0,1.0,9.0,195.0,14.0,6.0
chimbas,70042,-31.495614115,-68.563706793,san juan,87258.0,94.0,2.0,51.0,92.0,20846.0,20853.0,20.0,18619.0,10.0,16.0,1122.0,11.0,6.0
la pampa capital,42021,-36.68302536,-64.193794251,la pampa,105312.0,93.0,88.0,91.0,98.0,35598.0,35697.0,8.0,34483.0,3.0,4.0,345.0,3.0,2.0
victoria,30105,-32.957337,-60.049086,entre rios,35767.0,86.0,50.0,20.0,92.0,11063.0,11097.0,20.0,10604.0,4.0,7.0,384.0,8.0,4.0
trenel,42147,-35.741376357,-64.447959893,la pampa,5426.0,90.0,45.0,82.0,97.0,1852.0,1859.0,8.0,1815.0,1.0,3.0,27.0,2.0,1.0
chapaleufu,42056,-35.02186343,-63.818977368,la pampa,11620.0,77.0,51.0,84.0,97.0,3984.0,3994.0,15.0,3890.0,2.0,2.0,47.0,4.0,2.0
san antonio,38056,-24.373626709,-65.604064941,jujuy,4466.0,64.0,22.0,0.0,78.0,1239.0,1239.0,22.0,1136.0,8.0,21.0,163.0,22.0,8.0
ciudad de buenos aires,2000,-34.613291729,-58.388751736,ciudad de buenos aires,,,,,,,,,,,,,,
vera,82133,-29.725727982,-60.289512873,santa fe,51494.0,82.0,22.0,0.0,84.0,14756.0,14803.0,22.0,13956.0,5.0,11.0,897.0,14.0,6.0
12 de octubre,22036,-27.34587947,-61.4341435,chaco,22281.0,23.0,0.0,0.0,81.0,6021.0,6033.0,25.0,5769.0,4.0,15.0,669.0,22.0,6.0
los lagos,58070,-40.727523804,-71.677230835,neuquen,11998.0,84.0,1.0,79.0,88.0,3623.0,3790.0,15.0,3473.0,4.0,8.0,144.0,6.0,1.0
guachipas,66063,-25.77241,-65.34234,salta,3187.0,62.0,44.0,0.0,56.0,906.0,912.0,21.0,849.0,6.0,22.0,143.0,27.0,6.0
godoy cruz,50021,-32.921528315,-68.854923183,mendoza,191903.0,98.0,94.0,88.0,97.0,14748.0,57461.0,12.0,14113.0,4.0,9.0,310.0,3.0,2.0
general belgrano,46063,-30.557228088,-66.160728455,la rioja,7370.0,94.0,0.0,0.0,83.0,2149.0,2157.0,8.0,2077.0,3.0,9.0,137.0,16.0,4.0
pehuenches,58091,-36.925289154,-69.985023498,neuquen,24087.0,95.0,51.0,81.0,91.0,7196.0,7233.0,12.0,6742.0,6.0,15.0,633.0,15.0,5.0
santa maria,14147,-31.55910043,-64.19196866,cordoba,98188.0,88.0,24.0,29.0,94.0,28144.0,28275.0,14.0,26707.0,5.0,6.0,424.0,8.0,4.0
gastre,26049,-42.841125488,-68.456611633,chubut,1427.0,51.0,0.0,0.0,45.0,512.0,522.0,22.0,421.0,17.0,21.0,17.0,12.0,2.0
monteros,90070,-27.138624191,-65.443618774,tucuman,63641.0,89.0,28.0,19.0,91.0,15944.0,15961.0,17.0,14965.0,6.0,8.0,432.0,13.0,6.0
tupungato,50126,-33.300084738,-69.17169565,mendoza,32524.0,84.0,39.0,41.0,87.0,8530.0,8551.0,15.0,7838.0,8.0,13.0,460.0,16.0,8.0
san fernando,6749,-34.2256455,-58.5931568,buenos aires,163240.0,97.0,77.0,58.0,97.0,49384.0,49466.0,14.0,44745.0,9.0,12.0,1592.0,8.0,4.0
apostoles,54007,-28.066221237,-55.598537445,misiones,42249.0,79.0,4.0,0.0,84.0,11556.0,11569.0,18.0,11057.0,4.0,17.0,1525.0,19.0,4.0
malvinas argentinas,6515,-34.454455058,-58.706241741,buenos aires,322375.0,10.0,2.0,39.0,96.0,89338.0,89384.0,17.0,80186.0,10.0,15.0,4348.0,12.0,5.0
coronel suarez,6203,-37.6402741,-62.0066225,buenos aires,38320.0,80.0,40.0,76.0,96.0,8191.0,13469.0,7.0,13104.0,2.0,3.0,128.0,2.0,0.0
2 de abril,22039,-27.597486358,-61.131970665,chaco,7432.0,1.0,0.0,0.0,84.0,2121.0,2124.0,14.0,2018.0,4.0,10.0,114.0,18.0,4.0
formosa,34014,-25.738264083,-57.920059208,formosa,234354.0,90.0,59.0,0.0,89.0,62621.0,62695.0,21.0,56190.0,10.0,16.0,4040.0,15.0,7.0
loberia,6476,-37.7714343,-58.6447231,buenos aires,17523.0,81.0,61.0,34.0,93.0,5902.0,5920.0,10.0,5750.0,2.0,4.0,96.0,4.0,1.0
parana,30084,-31.885412846,-60.234448335,entre rios,339930.0,96.0,70.0,41.0,96.0,105030.0,105198.0,13.0,99572.0,5.0,6.0,1400.0,5.0,2.0
san ignacio,54098,-27.251232072,-55.530492495,misiones,57728.0,69.0,0.0,0.0,80.0,15532.0,15570.0,23.0,14851.0,4.0,15.0,1724.0,19.0,5.0
comuna 13,2013,-34.554881524,-58.450289095,ciudad de buenos aires,231331.0,99.0,99.0,97.0,99.0,100195.0,100657.0,9.0,97732.0,2.0,3.0,209.0,1.0,0.0
lanus,6434,-34.69095715,-58.383862849,buenos aires,459263.0,99.0,37.0,49.0,95.0,149594.0,149698.0,13.0,137132.0,8.0,11.0,2144.0,4.0,2.0
palpala,38042,-24.18229866,-65.207740784,jujuy,52631.0,98.0,74.0,35.0,89.0,13225.0,13238.0,16.0,11931.0,9.0,13.0,498.0,11.0,4.0
ayacucho,6042,-37.2159908,-58.6862018,buenos aires,20337.0,84.0,73.0,43.0,93.0,6967.0,6984.0,8.0,6768.0,2.0,10.0,108.0,4.0,2.0
santiago del estero capital,86049,-27.80983349,-64.48893926,santiago del estero,267125.0,97.0,41.0,45.0,92.0,68793.0,68878.0,8.0,64348.0,6.0,9.0,1873.0,9.0,4.0
salliquelo,6721,-36.568990828,-63.087622957,buenos aires,8644.0,88.0,39.0,42.0,96.0,3162.0,3178.0,10.0,3098.0,2.0,4.0,21.0,1.0,0.0
famatina,46049,-28.9015462,-67.5409052,la rioja,5863.0,95.0,0.0,0.0,89.0,1711.0,1717.0,15.0,1659.0,3.0,18.0,264.0,16.0,4.0
general alvear,6287,-36.0095752,-60.2101369,buenos aires,11130.0,83.0,49.0,46.0,96.0,3308.0,3321.0,10.0,3174.0,4.0,5.0,48.0,4.0,1.0
chacabuco,74028,-32.563397622,-65.031530745,san luis,20744.0,93.0,12.0,41.0,90.0,6417.0,6447.0,14.0,6218.0,3.0,6.0,191.0,9.0,3.0
san pedro,54112,-26.508554673,-53.92302828,misiones,31051.0,38.0,0.0,0.0,61.0,7665.0,7682.0,25.0,7413.0,3.0,12.0,675.0,22.0,5.0
montecarlo,54084,-26.754643617,-54.699244772,misiones,36745.0,69.0,13.0,0.0,84.0,9805.0,9822.0,26.0,9513.0,2.0,9.0,612.0,14.0,4.0
san salvador,30088,-31.593985089,-58.371160151,entre rios,17357.0,92.0,78.0,14.0,93.0,5257.0,5262.0,11.0,5110.0,2.0,5.0,121.0,8.0,4.0
villarino,6875,-39.4323988,-62.9350751,buenos aires,31014.0,82.0,18.0,45.0,88.0,9890.0,9907.0,12.0,9553.0,3.0,8.0,538.0,13.0,6.0
colon,6175,-33.970424262,-61.076205346,buenos aires,24890.0,86.0,61.0,67.0,96.0,19424.0,8213.0,15.0,7926.0,3.0,4.0,63.0,3.0,2.0
ituzaingo,18084,-27.715914491,-56.94751639,corrientes,31150.0,83.0,25.0,0.0,82.0,8367.0,8399.0,23.0,7918.0,5.0,18.0,1075.0,16.0,5.0
mercedes,6532,-34.645015717,-59.359275818,buenos aires,63284.0,85.0,64.0,59.0,95.0,20214.0,20258.0,10.0,19343.0,4.0,5.0,324.0,5.0,2.0
tapenaga,22161,-27.778495788,-59.604564666,chaco,4097.0,69.0,21.0,0.0,70.0,1156.0,1158.0,24.0,1113.0,3.0,10.0,83.0,21.0,7.0
presidente roque saenz pena,14084,-33.904690547,-63.83804658,cordoba,36282.0,28.0,39.0,30.0,97.0,12111.0,12155.0,9.0,11895.0,1.0,2.0,106.0,4.0,2.0
santa rosa,50112,-33.0552929,-68.066892376,mendoza,16374.0,72.0,0.0,31.0,92.0,4438.0,4449.0,17.0,4205.0,5.0,8.0,154.0,10.0,3.0
concepcion,54035,-27.88963381,-55.42634391,misiones,9577.0,67.0,0.0,0.0,75.0,2584.0,2592.0,22.0,2552.0,1.0,14.0,346.0,17.0,4.0
25 de mayo,70126,-31.73063248,-68.34501277,san juan,17119.0,74.0,10.0,0.0,85.0,3973.0,3980.0,34.0,3704.0,6.0,28.0,852.0,20.0,9.0
bragado,6112,-35.2410531,-60.3474272,buenos aires,41336.0,87.0,59.0,32.0,93.0,14291.0,14316.0,10.0,13457.0,5.0,6.0,140.0,3.0,1.0
susques,38084,-23.114919663,-66.250076294,jujuy,3791.0,72.0,0.0,0.0,22.0,854.0,890.0,7.0,728.0,14.0,20.0,47.0,26.0,6.0
sanagasta,46126,-29.160524552,-67.091955631,la rioja,2345.0,94.0,0.0,0.0,95.0,622.0,626.0,8.0,604.0,2.0,11.0,55.0,18.0,4.0
feliciano,30042,-30.429341534,-58.76618814,entre rios,15079.0,75.0,50.0,0.0,81.0,3949.0,3957.0,35.0,3791.0,4.0,15.0,435.0,15.0,8.0
tigre,6805,-34.3277116,-58.608687,buenos aires,376381.0,64.0,17.0,64.0,96.0,108558.0,108624.0,16.0,98616.0,9.0,14.0,5669.0,11.0,4.0
rio chico,78049,-47.454299927,-71.845031738,santa cruz,5158.0,86.0,78.0,56.0,86.0,1429.0,1458.0,12.0,1371.0,4.0,7.0,50.0,9.0,5.0
santa victoria,66161,-22.17502,-64.93502,salta,10344.0,46.0,16.0,0.0,24.0,2545.0,2557.0,12.0,2428.0,4.0,28.0,618.0,24.0,6.0
general lopez,82042,-34.174710725,-62.050326774,santa fe,191024.0,51.0,38.0,53.0,97.0,64397.0,64555.0,9.0,62084.0,3.0,4.0,775.0,4.0,2.0
antartida argentina,94028,-64.155802312,-60.955074053,tierra del fuego antartida e islas del atlantico sur,190.0,66.0,66.0,0.0,66.0,0.0,12.0,0.0,0.0,0.0,0.0,0.0,0.0,0.0
cachi,66014,-25.020489232,-66.097021202,salta,7315.0,61.0,25.0,0.0,66.0,1811.0,1829.0,22.0,1704.0,5.0,27.0,397.0,21.0,7.0
pehuajo,6609,-35.6179927,-62.0046671,buenos aires,39776.0,85.0,32.0,47.0,96.0,13805.0,13831.0,10.0,13495.0,2.0,3.0,137.0,4.0,2.0
la paz,50042,-33.558452606,-67.252449036,mendoza,10012.0,89.0,16.0,57.0,90.0,2869.0,2880.0,14.0,2614.0,8.0,10.0,57.0,9.0,3.0
valle grande,38105,-23.56311433,-64.89713769,jujuy,2451.0,73.0,0.0,0.0,36.0,777.0,785.0,12.0,727.0,6.0,17.0,87.0,25.0,6.0
tilcara,38094,-23.77525242,-65.29804781,jujuy,12349.0,83.0,10.0,6.0,66.0,3397.0,3476.0,16.0,2995.0,11.0,24.0,433.0,18.0,7.0
comandante fernandez,22021,-26.9538276,-60.51530921,chaco,96944.0,86.0,31.0,0.0,86.0,27000.0,27042.0,17.0,24798.0,8.0,12.0,1207.0,16.0,6.0
general rodriguez,6364,-34.721174062,-59.011601578,buenos aires,87185.0,32.0,26.0,39.0,97.0,24926.0,24958.0,15.0,22724.0,8.0,15.0,1693.0,13.0,6.0
rosario vera penaloza,46112,-31.38359642,-66.626953125,la rioja,14054.0,87.0,0.0,0.0,81.0,3924.0,3935.0,11.0,3794.0,3.0,8.0,206.0,17.0,7.0
lago argentino,78028,-50.27098465,-71.892753601,santa cruz,18864.0,93.0,55.0,87.0,85.0,5512.0,5707.0,8.0,5136.0,6.0,12.0,335.0,10.0,4.0
limay mahuida,42091,-37.552004942,-66.226853897,la pampa,503.0,57.0,0.0,0.0,88.0,189.0,190.0,19.0,189.0,0.0,5.0,11.0,12.0,1.0
jose c paz,6412,-34.480495795,-58.804258898,buenos aires,265981.0,17.0,5.0,54.0,97.0,71722.0,71761.0,18.0,65708.0,8.0,13.0,3368.0,12.0,5.0
alberdi,86014,-26.789466858,-62.705165863,santiago del estero,17252.0,32.0,0.0,0.0,70.0,3980.0,4002.0,14.0,3461.0,13.0,34.0,873.0,30.0,10.0
tres arroyos,6833,-38.2667152,-60.4002814,buenos aires,57110.0,88.0,60.0,59.0,96.0,20114.0,20174.0,9.0,19418.0,3.0,4.0,164.0,3.0,1.0
la vina,66098,-25.623203278,-65.613235474,salta,7435.0,80.0,17.0,0.0,77.0,1869.0,1891.0,24.0,1465.0,21.0,28.0,133.0,22.0,8.0
ullum,70112,-31.4627522,-68.73605428,san juan,4886.0,86.0,0.0,0.0,85.0,1230.0,1241.0,24.0,1189.0,3.0,18.0,184.0,12.0,6.0
independencia,el,-26.524236939,-60.571935257,chaco,22411.0,41.0,1.0,0.0,72.0,5417.0,5425.0,23.0,5201.0,3.0,10.0,373.0,28.0,9.0
rosario de lerma,66147,-24.141889572,-66.019447327,salta,38702.0,84.0,32.0,29.0,79.0,8968.0,8982.0,17.0,8117.0,9.0,18.0,787.0,18.0,8.0
totoral,14168,-30.81785967,-64.211850181,cordoba,18556.0,84.0,1.0,25.0,90.0,5363.0,5396.0,12.0,5142.0,4.0,6.0,101.0,9.0,5.0
tapalque,6798,-36.475682,-60.1222218,buenos aires,9178.0,71.0,54.0,50.0,93.0,3163.0,3170.0,10.0,3105.0,1.0,2.0,31.0,3.0,1.0
vicente lopez,6861,-34.525914969,-58.535763943,buenos aires,269420.0,99.0,96.0,44.0,96.0,99286.0,99377.0,8.0,94989.0,4.0,5.0,1406.0,2.0,0.0
san justo,82112,-30.8130411,-60.3886502,santa fe,40904.0,90.0,38.0,0.0,94.0,13113.0,13143.0,16.0,12487.0,4.0,5.0,153.0,6.0,3.0
valle viejo,10112,-28.560608532,-65.780337085,catamarca,27242.0,98.0,0.0,17.0,94.0,6882.0,6893.0,10.0,6461.0,6.0,7.0,127.0,9.0,5.0
bella vista,18007,-28.489517068,-59.034120641,corrientes,37181.0,77.0,43.0,0.0,80.0,9823.0,9839.0,20.0,9334.0,4.0,14.0,905.0,16.0,7.0
florentino ameghino,6277,-34.816707094,-62.449682981,buenos aires,8869.0,79.0,53.0,55.0,96.0,2986.0,2992.0,8.0,2923.0,2.0,3.0,41.0,4.0,2.0
juarez celman,14056,-33.3160107,-63.2538219,cordoba,61078.0,89.0,36.0,50.0,96.0,19745.0,19799.0,8.0,19211.0,2.0,3.0,241.0,5.0,2.0
la poma,66091,-23.78698349,-66.067832947,salta,1738.0,47.0,0.0,0.0,27.0,423.0,428.0,53.0,365.0,13.0,36.0,98.0,25.0,7.0
moron,6568,-34.664413103,-58.645642712,buenos aires,321109.0,81.0,55.0,66.0,97.0,106902.0,106995.0,10.0,100936.0,5.0,6.0,1460.0,3.0,1.0
escalante,26021,-45.89050293,-68.068969727,chubut,186583.0,99.0,88.0,90.0,96.0,56875.0,57015.0,14.0,52770.0,7.0,11.0,2429.0,9.0,3.0
alumine,58007,-39.30917583,-70.92970664,neuquen,8306.0,64.0,44.0,52.0,73.0,3238.0,2521.0,16.0,2337.0,3.0,15.0,270.0,16.0,4.0
avellaneda,62014,-39.60125657,-65.49681844,rio negro,35323.0,89.0,67.0,78.0,92.0,10549.0,10594.0,14.0,10165.0,3.0,7.0,379.0,10.0,5.0
general pedernera,74035,-33.7828408,-65.72200942,san luis,125899.0,93.0,74.0,63.0,95.0,36992.0,37050.0,11.0,34372.0,7.0,8.0,487.0,6.0,3.0
general juan f quiroga,46070,-30.755954238,-66.668261739,la rioja,4108.0,80.0,0.0,0.0,78.0,1123.0,1125.0,8.0,1100.0,2.0,14.0,140.0,21.0,6.0
tres lomas,6847,-36.499723,-62.6930571,buenos aires,8700.0,88.0,0.0,73.0,97.0,2894.0,2901.0,8.0,2845.0,1.0,2.0,28.0,3.0,1.0
libertador general san martin,54077,-26.785012551,-54.901151033,misiones,46561.0,75.0,15.0,0.0,86.0,12751.0,12787.0,19.0,12500.0,1.0,8.0,883.0,15.0,5.0
loncopue,58063,-38.143833175,-70.528734,neuquen,6925.0,74.0,62.0,60.0,71.0,2000.0,2010.0,16.0,1870.0,6.0,15.0,180.0,20.0,8.0
san carlos,50091,-33.670943614,-68.98052274,mendoza,32631.0,78.0,27.0,45.0,91.0,8985.0,9007.0,15.0,8430.0,6.0,9.0,259.0,10.0,5.0
cochinoca,38007,-22.84146227,-66.079278568,jujuy,12656.0,76.0,20.0,0.0,49.0,3373.0,3399.0,16.0,3035.0,10.0,39.0,987.0,19.0,6.0
curuzu cuatia,18035,-29.309599765,-58.51285545,corrientes,44384.0,84.0,62.0,0.0,88.0,12446.0,12473.0,20.0,11901.0,4.0,10.0,729.0,12.0,5.0
quebrachos,86140,-29.79049,-63.18682,santiago del estero,10568.0,53.0,0.0,0.0,80.0,2807.0,2814.0,19.0,2599.0,7.0,27.0,568.0,17.0,6.0
san cristobal,82091,-29.887499217,-61.571827677,santa fe,68878.0,23.0,19.0,0.0,94.0,21776.0,21826.0,11.0,20771.0,4.0,5.0,256.0,6.0,3.0
belgrano,86042,-28.89628,-62.62596,santiago del estero,9243.0,54.0,0.0,0.0,88.0,2473.0,2492.0,15.0,2157.0,12.0,18.0,145.0,16.0,5.0
coronel pringles,74021,-33.120748488,-65.966843949,san luis,13157.0,85.0,11.0,27.0,88.0,4055.0,4068.0,11.0,3862.0,4.0,9.0,190.0,9.0,3.0
pellegrini,86133,-26.283187866,-64.456840515,santiago del estero,20514.0,57.0,0.0,0.0,67.0,5296.0,5312.0,14.0,4703.0,11.0,22.0,617.0,28.0,7.0
mendoza capital,50007,-32.877493847,-68.852787068,mendoza,115041.0,96.0,94.0,88.0,96.0,39136.0,39388.0,11.0,36794.0,5.0,8.0,830.0,4.0,1.0
general san martin,6371,-34.567343377,-58.584311246,buenos aires,414196.0,98.0,52.0,55.0,96.0,133202.0,133301.0,13.0,121392.0,8.0,11.0,3852.0,6.0,2.0
quemu quemu,42119,-36.208427429,-63.702777862,la pampa,8663.0,83.0,0.0,83.0,97.0,3139.0,3150.0,10.0,3083.0,1.0,2.0,26.0,1.0,0.0
gualeguaychu,30056,-33.154505087,-58.988901125,entre rios,109461.0,89.0,78.0,27.0,96.0,34492.0,34564.0,11.0,33057.0,4.0,5.0,525.0,4.0,2.0
punilla,14091,-31.105800629,-64.591285706,cordoba,178401.0,93.0,23.0,19.0,94.0,55253.0,56147.0,12.0,52983.0,4.0,5.0,725.0,5.0,3.0
lavalle,18091,-28.9356733,-58.8052348,corrientes,28759.0,68.0,31.0,0.0,70.0,7312.0,7328.0,32.0,7108.0,2.0,23.0,1529.0,28.0,11.0
cerrillos,66035,-24.95319832,-65.42243492,salta,35789.0,82.0,40.0,30.0,81.0,8505.0,8516.0,15.0,7549.0,11.0,20.0,817.0,23.0,11.0
presidente peron,6648,-34.9075871,-58.4348955,buenos aires,81141.0,64.0,1.0,80.0,93.0,21422.0,21426.0,15.0,20122.0,6.0,15.0,2090.0,19.0,9.0
alberti,6021,-35.237293243,-60.303031921,buenos aires,10654.0,78.0,74.0,65.0,96.0,3828.0,3835.0,8.0,3725.0,2.0,4.0,65.0,2.0,0.0
chacabuco,22028,-27.376891185,-60.858685319,chaco,30590.0,1.0,0.0,0.0,86.0,8494.0,8512.0,18.0,8003.0,5.0,11.0,450.0,15.0,5.0
lacar,58056,-40.200557709,-71.060089111,neuquen,29748.0,89.0,76.0,87.0,92.0,9155.0,9356.0,15.0,8590.0,6.0,10.0,376.0,8.0,3.0
florentino ameghino,26028,-44.338169098,-65.236175537,chubut,1627.0,76.0,0.0,15.0,81.0,479.0,496.0,9.0,460.0,3.0,4.0,3.0,8.0,1.0
tulumba,14175,-29.982391401,-64.490007826,cordoba,12673.0,72.0,0.0,0.0,83.0,4041.0,4054.0,12.0,3944.0,2.0,7.0,190.0,14.0,4.0
general angel vera penaloza,46056,-30.515722275,-66.864128113,la rioja,3073.0,79.0,10.0,0.0,80.0,867.0,871.0,7.0,855.0,1.0,6.0,46.0,15.0,3.0
rivadavia,66133,-22.49881,-62.40759,salta,30357.0,53.0,0.0,0.0,32.0,7154.0,7176.0,37.0,6659.0,6.0,48.0,2948.0,49.0,25.0
chalileo,42049,-36.63620803,-66.47691656,la pampa,2985.0,83.0,0.0,69.0,91.0,947.0,952.0,9.0,900.0,4.0,4.0,19.0,8.0,3.0
bolivar,6105,-36.002259,-60.623087,buenos aires,34190.0,89.0,69.0,46.0,95.0,12002.0,12039.0,8.0,11708.0,2.0,3.0,105.0,3.0,1.0
poman,10084,-28.33781745,-66.54987231,catamarca,10776.0,93.0,0.0,0.0,88.0,2746.0,2753.0,9.0,2657.0,3.0,7.0,105.0,11.0,5.0
santo tome,18168,-28.518781665,-56.055442891,corrientes,61297.0,87.0,53.0,0.0,87.0,16664.0,16697.0,14.0,15472.0,7.0,16.0,1543.0,14.0,4.0
tinogasta,10105,-27.092108466,-67.818961519,catamarca,22360.0,85.0,17.0,0.0,87.0,6066.0,6111.0,12.0,5818.0,4.0,6.0,118.0,10.0,3.0
valle fertil,70119,-30.804157736,-67.366234996,san juan,7222.0,84.0,0.0,0.0,85.0,1868.0,1884.0,16.0,1792.0,4.0,8.0,89.0,15.0,5.0
anelo,58014,-37.888034232,-68.514489997,neuquen,10786.0,83.0,43.0,49.0,85.0,2432.0,3251.0,13.0,3126.0,3.0,14.0,351.0,20.0,9.0
junin,74049,-32.31398017,-65.41102538,san luis,28933.0,94.0,2.0,32.0,93.0,9033.0,9107.0,10.0,8638.0,4.0,6.0,230.0,6.0,3.0
mitre,86112,-29.291571662,-63.034503114,santiago del estero,1890.0,12.0,0.0,0.0,72.0,536.0,536.0,24.0,521.0,2.0,62.0,322.0,22.0,5.0
tres de febrero,6840,-34.608872951,-58.563664457,buenos aires,340071.0,93.0,81.0,74.0,97.0,112588.0,112689.0,11.0,104154.0,7.0,9.0,1903.0,4.0,1.0
san antonio de areco,6735,-34.2881384,-59.5070413,buenos aires,23138.0,77.0,29.0,54.0,96.0,7191.0,7221.0,9.0,6845.0,4.0,5.0,76.0,3.0,2.0
belgrano,82007,-32.7494032,-61.5381149,santa fe,44788.0,73.0,58.0,53.0,97.0,14481.0,14509.0,9.0,13675.0,5.0,6.0,123.0,4.0,2.0
san justo,14140,-31.234003736,-62.740666131,cordoba,206307.0,86.0,31.0,29.0,97.0,66832.0,67001.0,8.0,64404.0,3.0,4.0,525.0,4.0,2.0
trancas,90112,-26.385499954,-65.363098145,tucuman,17371.0,75.0,0.0,16.0,77.0,4441.0,4457.0,31.0,4204.0,5.0,17.0,541.0,23.0,7.0
fray justo santa maria de oro,22043,-27.867498663,-61.325403043,chaco,11826.0,0.0,0.0,0.0,74.0,3229.0,3246.0,25.0,3077.0,4.0,17.0,409.0,24.0,7.0
angaco,70014,-31.45675103,-68.34171324,san juan,8125.0,86.0,5.0,0.0,89.0,2015.0,2018.0,34.0,1878.0,6.0,20.0,277.0,16.0,6.0
capayan,10042,-29.025346811,-66.003835459,catamarca,16085.0,81.0,0.0,0.0,86.0,3927.0,3939.0,10.0,3779.0,3.0,7.0,133.0,14.0,7.0
campana,6126,-34.059934,-58.836065,buenos aires,94461.0,89.0,50.0,66.0,96.0,28111.0,28154.0,12.0,25977.0,7.0,8.0,1101.0,8.0,3.0
san pedro,38063,-24.408639908,-64.621589661,jujuy,75037.0,92.0,62.0,36.0,85.0,19616.0,19645.0,16.0,18004.0,8.0,14.0,1288.0,16.0,7.0
federal,30035,-30.971937142,-58.993275987,entre rios,25863.0,83.0,53.0,4.0,85.0,7408.0,7428.0,18.0,7222.0,2.0,7.0,393.0,12.0,6.0
deseado,78014,-47.887138367,-66.951148987,santa cruz,107630.0,97.0,76.0,95.0,94.0,32187.0,32350.0,10.0,29629.0,7.0,11.0,1153.0,9.0,4.0
copo,86056,-25.72948778,-63.46601397,santiago del estero,31404.0,64.0,0.0,0.0,70.0,7522.0,7550.0,19.0,6659.0,11.0,12.0,1556.0,32.0,7.0
guamini,6399,-36.894233704,-62.356311798,buenos aires,11826.0,78.0,46.0,44.0,95.0,4224.0,4250.0,11.0,4134.0,2.0,3.0,47.0,2.0,0.0
la capital,82063,-31.188581467,-60.626773834,santa fe,525093.0,86.0,49.0,45.0,95.0,165133.0,165382.0,15.0,153098.0,7.0,8.0,2630.0,5.0,3.0
la candelaria,66084,-26.14426,-65.0142,salta,5704.0,79.0,3.0,0.0,74.0,1469.0,1477.0,23.0,1366.0,7.0,15.0,120.0,17.0,8.0
minas,14070,-30.849700273,-65.365090379,cordoba,4727.0,53.0,0.0,0.0,77.0,1495.0,1501.0,18.0,1447.0,3.0,12.0,139.0,22.0,5.0
norquin,58084,-37.357940674,-70.870056152,neuquen,4692.0,71.0,31.0,30.0,73.0,1380.0,1410.0,16.0,1267.0,8.0,16.0,120.0,17.0,5.0
santa catalina,38077,-22.051202774,-65.841766357,jujuy,2800.0,57.0,0.0,0.0,16.0,846.0,854.0,23.0,759.0,10.0,46.0,305.0,24.0,4.0
sarmiento,70105,-32.02091413,-68.39270346,san juan,22131.0,79.0,13.0,0.0,85.0,5224.0,5230.0,27.0,4830.0,7.0,17.0,521.0,20.0,10.0
humahuaca,38028,-22.96907829,-65.43667552,jujuy,17366.0,81.0,46.0,15.0,60.0,4742.0,4796.0,19.0,4422.0,6.0,19.0,610.0,19.0,6.0
adolfo gonzales chaves,6014,-37.854450226,-59.95879364,buenos aires,12047.0,84.0,40.0,78.0,97.0,6237.0,4208.0,10.0,4090.0,2.0,3.0,40.0,2.0,1.0
antofagasta de la sierra,10028,-25.246114731,-67.520767212,catamarca,1436.0,78.0,25.0,0.0,39.0,365.0,383.0,11.0,356.0,2.0,53.0,188.0,17.0,2.0
bariloche,62021,-41.898146079,-71.503164693,rio negro,133500.0,90.0,51.0,80.0,92.0,41976.0,42396.0,15.0,40123.0,4.0,11.0,2970.0,10.0,3.0
anta,66007,-24.250011444,-64.140953064,salta,57411.0,85.0,33.0,0.0,73.0,13688.0,13726.0,23.0,12489.0,8.0,23.0,1988.0,27.0,10.0
sargento cabral,22154,-26.599502096,-59.748676426,chaco,15889.0,73.0,4.0,0.0,72.0,4367.0,4378.0,25.0,4068.0,6.0,12.0,263.0,20.0,7.0
carlos tejedor,6154,-35.263763428,-62.677410126,buenos aires,11570.0,62.0,0.0,54.0,96.0,3976.0,3985.0,11.0,3832.0,3.0,4.0,44.0,3.0,1.0
san luis del palmar,18140,-27.41325145,-58.37888858,corrientes,17590.0,69.0,25.0,0.0,78.0,4417.0,4423.0,27.0,4253.0,3.0,16.0,554.0,16.0,7.0
mar chiquita,6518,-37.4842367,-57.4365959,buenos aires,21279.0,54.0,27.0,76.0,96.0,7115.0,7146.0,12.0,6905.0,2.0,5.0,156.0,5.0,2.0
libertador general san martin,74063,-32.771430969,-65.766944885,san luis,4707.0,35.0,4.0,0.0,71.0,1530.0,1533.0,19.0,1458.0,4.0,16.0,182.0,33.0,4.0
concordia,30015,-31.352304459,-58.05355072,entre rios,170033.0,94.0,75.0,16.0,92.0,47982.0,48090.0,20.0,44961.0,6.0,15.0,4352.0,14.0,5.0
arauco,46007,-28.39283371,-66.568237305,la rioja,15418.0,88.0,5.0,0.0,91.0,4109.0,4118.0,11.0,3917.0,4.0,8.0,149.0,12.0,6.0
santa lucia,70098,-31.509735114,-68.502685795,san juan,48087.0,96.0,53.0,58.0,95.0,12724.0,12736.0,20.0,11291.0,11.0,16.0,611.0,8.0,4.0
san andres de giles,6728,-34.387887,-59.4326743,buenos aires,23027.0,58.0,26.0,51.0,97.0,7284.0,7297.0,11.0,7043.0,3.0,6.0,212.0,5.0,2.0
aguirre,86007,-28.968503224,-62.900291325,santiago del estero,7610.0,70.0,0.0,0.0,75.0,2087.0,2097.0,15.0,2023.0,3.0,16.0,279.0,17.0,7.0
union,14182,-33.4792553,-62.9564065,cordoba,105727.0,92.0,31.0,50.0,97.0,34669.0,34760.0,9.0,33807.0,2.0,3.0,316.0,4.0,2.0
comuna 11,2011,-34.6042463,-58.490676432,ciudad de buenos aires,189832.0,99.0,99.0,98.0,99.0,71096.0,71545.0,10.0,68652.0,4.0,4.0,169.0,2.0,0.0
uruguay,30098,-32.380954743,-58.236881266,entre rios,100728.0,87.0,75.0,24.0,96.0,32573.0,32645.0,12.0,30893.0,5.0,7.0,912.0,5.0,2.0
maraco,42105,-35.48140196,-63.49637054,la pampa,59024.0,92.0,88.0,93.0,98.0,19703.0,19742.0,6.0,19104.0,3.0,3.0,145.0,3.0,1.0
pirane,34056,-25.5645932,-59.10290413,formosa,64566.0,71.0,4.0,0.0,75.0,17855.0,17888.0,20.0,17294.0,3.0,12.0,1726.0,19.0,8.0
bermejo,34007,-23.755783081,-61.170639038,formosa,14046.0,38.0,0.0,0.0,37.0,3548.0,3568.0,33.0,3284.0,7.0,43.0,1262.0,41.0,22.0
comuna 2,2002,-34.585876008,-58.39499618,ciudad de buenos aires,157932.0,99.0,99.0,97.0,99.0,72903.0,73325.0,9.0,70869.0,3.0,3.0,113.0,2.0,0.0
hucal,42077,-37.722442627,-64.064544678,la pampa,7540.0,88.0,0.0,80.0,97.0,2908.0,2926.0,9.0,2861.0,1.0,3.0,44.0,1.0,0.0
chascomus,6217,-35.4916042,-57.8945611,buenos aires,42277.0,78.0,63.0,64.0,95.0,13903.0,13956.0,8.0,13425.0,3.0,5.0,356.0,4.0,2.0
tucuman capital,90084,-26.82900979,-65.210544181,tucuman,548866.0,97.0,77.0,61.0,94.0,148773.0,148975.0,18.0,133408.0,10.0,13.0,5405.0,9.0,3.0
junin,50035,-33.150900314,-68.408806286,mendoza,37859.0,92.0,43.0,49.0,95.0,10578.0,10591.0,15.0,9949.0,5.0,7.0,134.0,6.0,3.0
itati,18077,-27.351966147,-57.873936254,corrientes,9171.0,77.0,21.0,0.0,82.0,2456.0,2474.0,22.0,2385.0,2.0,8.0,142.0,14.0,5.0
pocito,70070,-31.72999788,-68.56591515,san juan,53162.0,83.0,6.0,30.0,89.0,13154.0,13163.0,30.0,12081.0,8.0,23.0,1974.0,14.0,7.0
1 de mayo,22126,-27.228550345,-58.904050775,chaco,10322.0,81.0,0.0,0.0,85.0,2954.0,2955.0,22.0,2849.0,3.0,9.0,163.0,13.0,5.0
guer aike,78021,-51.8701101,-70.5994988,santa cruz,113267.0,96.0,91.0,96.0,95.0,33809.0,33916.0,11.0,31702.0,6.0,9.0,1003.0,6.0,2.0
esteban echeverria,6260,-34.884979135,-58.477809937,buenos aires,300959.0,51.0,19.0,62.0,97.0,85952.0,85989.0,14.0,77955.0,9.0,13.0,3186.0,10.0,5.0
comuna 9,2009,-34.643796083,-58.519129896,ciudad de buenos aires,161797.0,99.0,97.0,92.0,97.0,56033.0,56587.0,11.0,52355.0,7.0,8.0,315.0,4.0,1.0
leandro n alem,54070,-27.551394441,-55.540137661,misiones,45075.0,62.0,1.0,0.0,84.0,13063.0,13079.0,20.0,12731.0,2.0,8.0,809.0,14.0,3.0
pilcaniyeu,62070,-41.32152141,-70.27466678,rio negro,7428.0,74.0,5.0,68.0,80.0,2360.0,2381.0,13.0,2242.0,5.0,10.0,118.0,12.0,2.0
monte hermoso,6553,-38.995357691,-61.215201593,buenos aires,6499.0,83.0,71.0,56.0,95.0,2331.0,2351.0,14.0,2270.0,2.0,5.0,68.0,5.0,2.0
quilmes,6658,-34.700378406,-58.276642782,buenos aires,582943.0,98.0,59.0,60.0,97.0,177110.0,177234.0,14.0,163717.0,7.0,11.0,7331.0,9.0,3.0
suipacha,6784,-34.7224296,-59.7512909,buenos aires,10081.0,77.0,41.0,72.0,97.0,3204.0,3212.0,11.0,3120.0,2.0,4.0,59.0,4.0,2.0
monte,6547,-35.5785579,-58.9391774,buenos aires,21034.0,75.0,54.0,47.0,97.0,6587.0,6613.0,11.0,6376.0,3.0,5.0,136.0,5.0,3.0
25 de mayo,54119,-27.548253705,-54.761065477,misiones,27754.0,32.0,0.0,0.0,78.0,7529.0,7550.0,20.0,7347.0,2.0,7.0,410.0,15.0,2.0
tandil,6791,-37.350270395,-59.078732973,buenos aires,123871.0,92.0,73.0,45.0,92.0,43155.0,43357.0,9.0,41764.0,3.0,4.0,504.0,3.0,2.0
picunches,58105,-38.34971979,-69.939951421,neuquen,7022.0,82.0,58.0,70.0,82.0,1979.0,1997.0,18.0,1915.0,3.0,7.0,83.0,13.0,7.0
cainguas,54014,-27.117297152,-54.697852783,misiones,53403.0,55.0,0.0,0.0,79.0,14387.0,14413.0,19.0,13998.0,2.0,7.0,688.0,15.0,4.0
empedrado,18042,-27.70578113,-58.68808341,corrientes,15109.0,64.0,5.0,0.0,80.0,4055.0,4079.0,22.0,3905.0,3.0,17.0,578.0,18.0,7.0
castelli,6168,-36.1352289,-57.7158097,buenos aires,8205.0,80.0,71.0,94.0,99.0,2721.0,2738.0,10.0,2666.0,2.0,3.0,38.0,4.0,2.0
ramallo,6665,-33.6241496,-60.0461017,buenos aires,33042.0,93.0,68.0,54.0,93.0,10201.0,10217.0,12.0,9842.0,3.0,5.0,240.0,6.0,2.0
andalgala,10021,-27.619059558,-66.115185422,catamarca,18132.0,93.0,10.0,0.0,88.0,4697.0,4739.0,11.0,4469.0,4.0,6.0,96.0,11.0,5.0
caleu caleu,42014,-38.40961523,-63.4727511,la pampa,2313.0,79.0,0.0,69.0,95.0,741.0,744.0,10.0,695.0,6.0,6.0,3.0,3.0,2.0
candelaria,54021,-27.370332718,-55.535385132,misiones,27040.0,74.0,2.0,0.0,81.0,7299.0,7315.0,33.0,6903.0,5.0,11.0,465.0,16.0,5.0
ayacucho,74007,-32.136513149,-66.854453888,san luis,19087.0,88.0,3.0,0.0,87.0,5534.0,5567.0,16.0,5261.0,4.0,9.0,260.0,14.0,5.0
san juan capital,70028,-31.537197038,-68.525018317,san juan,109123.0,98.0,77.0,83.0,97.0,34049.0,34156.0,13.0,31827.0,6.0,8.0,778.0,4.0,1.0
chicoana,66042,-25.15339187,-65.69363231,salta,20710.0,85.0,24.0,0.0,81.0,4949.0,4954.0,19.0,4055.0,18.0,23.0,280.0,20.0,9.0
guarani,54056,-27.230711492,-54.178775578,misiones,67897.0,29.0,0.0,0.0,72.0,17789.0,17817.0,16.0,17382.0,2.0,9.0,1355.0,20.0,4.0
constitucion,82028,-33.3790173,-61.3544315,santa fe,86910.0,94.0,46.0,46.0,96.0,27693.0,27732.0,13.0,25971.0,6.0,8.0,524.0,5.0,2.0
figueroa,86070,-26.914608594,-63.529854431,santiago del estero,17820.0,24.0,0.0,0.0,59.0,4084.0,4085.0,34.0,3709.0,9.0,68.0,2406.0,36.0,14.0
balcarce,6063,-37.5739424,-58.6177189,buenos aires,43823.0,89.0,71.0,80.0,98.0,14720.0,14746.0,10.0,14022.0,4.0,4.0,367.0,6.0,2.0
sobremonte,14154,-29.616354941,-64.062436384,cordoba,4591.0,64.0,0.0,0.0,83.0,1311.0,1328.0,12.0,1233.0,5.0,9.0,42.0,14.0,6.0
tunuyan,50119,-33.4855528,-69.18303881,mendoza,49458.0,84.0,52.0,49.0,90.0,13538.0,13573.0,15.0,12690.0,6.0,11.0,677.0,12.0,6.0
almirante brown,22007,-25.534456253,-62.852661133,chaco,34075.0,47.0,0.0,0.0,71.0,8730.0,8745.0,17.0,7995.0,8.0,23.0,1344.0,30.0,9.0
hurlingham,6408,-34.593093136,-58.635720951,buenos aires,181241.0,34.0,11.0,58.0,95.0,55122.0,55161.0,15.0,50403.0,8.0,11.0,1460.0,6.0,2.0
la paz,30070,-30.60360412,-59.52751986,entre rios,66903.0,87.0,62.0,10.0,87.0,18305.0,18341.0,20.0,17440.0,4.0,8.0,684.0,12.0,7.0
quitilipi,22133,-26.99698694,-60.33777397,chaco,34081.0,74.0,26.0,0.0,73.0,8809.0,8817.0,21.0,8276.0,6.0,17.0,985.0,23.0,10.0
juan martin de pueyrredon,74056,-33.368777964,-66.40741813,san luis,204019.0,98.0,79.0,63.0,95.0,58559.0,58655.0,10.0,53317.0,8.0,10.0,930.0,6.0,3.0
tafi viejo,90105,-26.741963216,-65.563156447,tucuman,121638.0,85.0,30.0,43.0,92.0,3972.0,29782.0,19.0,3793.0,4.0,16.0,300.0,13.0,5.0
choya,86063,-28.599575043,-64.665016174,santiago del estero,34667.0,85.0,32.0,31.0,87.0,9465.0,9465.0,14.0,9030.0,4.0,32.0,726.0,13.0,6.0
o higgins,22112,-27.282306249,-60.802376761,chaco,20131.0,77.0,1.0,0.0,75.0,5184.0,5185.0,25.0,5002.0,3.0,9.0,299.0,25.0,9.0
gaiman,26042,-43.33395568,-65.47259113,chubut,11141.0,88.0,9.0,76.0,92.0,3508.0,3537.0,15.0,3279.0,6.0,9.0,114.0,8.0,3.0
capitan sarmiento,6140,-34.1731879,-59.9792421,buenos aires,14494.0,88.0,81.0,88.0,98.0,4672.0,4678.0,9.0,4481.0,4.0,6.0,101.0,6.0,2.0
realico,42133,-35.01791303,-64.035117862,la pampa,16227.0,93.0,42.0,90.0,97.0,5472.0,5494.0,7.0,5396.0,1.0,1.0,31.0,2.0,1.0
belgrano,74014,-32.52213375,-66.48595015,san luis,3985.0,58.0,8.0,0.0,80.0,1294.0,1304.0,15.0,1246.0,3.0,9.0,79.0,22.0,5.0
san antonio,62077,-40.778587341,-65.050743103,rio negro,29284.0,98.0,33.0,90.0,95.0,9230.0,9276.0,15.0,8837.0,4.0,6.0,176.0,6.0,3.0
futaleufu,26035,-43.48395319,-71.59418478,chubut,43076.0,93.0,81.0,87.0,91.0,13740.0,13874.0,14.0,12833.0,6.0,9.0,419.0,8.0,3.0
atamisqui,86021,-28.82072,-63.74698,santiago del estero,10923.0,36.0,0.0,0.0,64.0,2520.0,2529.0,18.0,2454.0,2.0,21.0,476.0,29.0,10.0
maipu,22091,-26.164279026,-60.55151954,chaco,25288.0,54.0,8.0,0.0,70.0,6346.0,6354.0,20.0,6103.0,3.0,17.0,836.0,28.0,9.0
catan lil,58021,-39.314510533,-70.154038951,neuquen,2155.0,36.0,0.0,0.0,41.0,661.0,663.0,20.0,640.0,3.0,10.0,51.0,21.0,5.0
salto,6714,-34.1554316,-60.4724629,buenos aires,32653.0,90.0,46.0,69.0,96.0,10689.0,10707.0,7.0,10372.0,2.0,2.0,206.0,5.0,2.0
general manuel belgrano,54049,-25.79129267,-53.88429149,misiones,42902.0,35.0,2.0,0.0,71.0,11042.0,11082.0,23.0,10435.0,5.0,18.0,1467.0,20.0,4.0
goya,18070,-29.175124402,-58.889820541,corrientes,89959.0,81.0,53.0,0.0,83.0,4119.0,24381.0,26.0,3934.0,4.0,17.0,868.0,15.0,6.0
general pinto,6351,-34.8011277,-61.8636453,buenos aires,11261.0,81.0,38.0,54.0,96.0,3888.0,3888.0,10.0,3820.0,1.0,2.0,38.0,3.0,1.0
corpen aike,78007,-50.203589682,-69.91434697,santa cruz,11093.0,95.0,82.0,94.0,92.0,3481.0,3512.0,7.0,3299.0,5.0,7.0,79.0,6.0,2.0
pichi mahuida,62063,-39.0626,-63.9792,rio negro,14107.0,89.0,47.0,81.0,96.0,4687.0,4705.0,12.0,4587.0,2.0,3.0,65.0,4.0,2.0
calamuchita,14007,-32.092862143,-64.563878452,cordoba,54730.0,85.0,9.0,20.0,91.0,16915.0,17384.0,13.0,16270.0,3.0,6.0,475.0,7.0,3.0
carmen de areco,6161,-34.4145467,-59.8540512,buenos aires,14692.0,77.0,49.0,88.0,98.0,4631.0,4641.0,10.0,4498.0,2.0,4.0,81.0,5.0,2.0
tercero arriba,14161,-32.252891508,-64.251432088,cordoba,109554.0,95.0,46.0,62.0,97.0,36058.0,36162.0,8.0,35121.0,2.0,3.0,245.0,3.0,1.0
san fernando,22140,-27.925615311,-59.31798172,chaco,390874.0,98.0,46.0,0.0,91.0,110180.0,110295.0,18.0,102755.0,6.0,10.0,4657.0,11.0,5.0
exaltacion de la cruz,6266,-34.2240131,-59.232576,buenos aires,29805.0,56.0,39.0,39.0,95.0,9101.0,9119.0,12.0,8626.0,5.0,9.0,365.0,8.0,3.0
comuna 12,2012,-34.560625135,-58.474944746,ciudad de buenos aires,200116.0,99.0,99.0,97.0,99.0,78286.0,78640.0,10.0,74995.0,4.0,4.0,218.0,1.0,0.0
lihuel calel,42084,-38.01481736,-65.584818951,la pampa,439.0,37.0,0.0,0.0,91.0,182.0,184.0,9.0,179.0,1.0,4.0,6.0,4.0,0.0
necochea,6581,-38.085516,-59.2924177,buenos aires,92933.0,93.0,76.0,61.0,95.0,31425.0,31556.0,11.0,30285.0,3.0,4.0,299.0,3.0,1.0
guasayan,86084,-27.850400925,-65.011795044,santiago del estero,7602.0,65.0,0.0,0.0,72.0,1950.0,1952.0,11.0,1795.0,7.0,28.0,405.0,20.0,8.0
pilar,6638,-34.422005581,-58.952837882,buenos aires,299077.0,27.0,17.0,57.0,97.0,82671.0,82744.0,14.0,75816.0,8.0,14.0,5010.0,13.0,5.0
general ocampo,46084,-30.878257752,-66.180053711,la rioja,7145.0,83.0,0.0,0.0,83.0,2096.0,2102.0,10.0,2047.0,2.0,11.0,201.0,15.0,4.0
paclin,10077,-27.854732513,-65.717269898,catamarca,4185.0,84.0,32.0,0.0,91.0,1152.0,1158.0,13.0,1080.0,6.0,9.0,35.0,9.0,4.0
san miguel,6760,-34.575140152,-58.696040989,buenos aires,276190.0,42.0,34.0,76.0,97.0,80627.0,80697.0,14.0,72989.0,9.0,12.0,2598.0,8.0,3.0
pila,6630,-36.097606751,-58.098558707,buenos aires,3640.0,64.0,51.0,74.0,96.0,1215.0,1223.0,8.0,1197.0,1.0,6.0,61.0,4.0,2.0
magallanes,78042,-49.064224243,-68.324668884,santa cruz,9202.0,97.0,80.0,95.0,95.0,2807.0,2808.0,8.0,2664.0,5.0,8.0,85.0,5.0,1.0
diamante,30021,-32.011978035,-60.61726225,entre rios,46361.0,87.0,58.0,31.0,95.0,14784.0,14831.0,12.0,14252.0,3.0,4.0,185.0,4.0,2.0
maipu,50070,-32.940932971,-68.642916793,mendoza,172332.0,85.0,47.0,60.0,95.0,46569.0,46611.0,17.0,42411.0,8.0,11.0,1030.0,8.0,4.0
santa maria,10091,-26.794689249,-66.483496437,catamarca,22548.0,87.0,30.0,0.0,82.0,5982.0,6008.0,15.0,5513.0,7.0,15.0,440.0,13.0,4.0
ledesma,38035,-23.884973526,-64.673904419,jujuy,81790.0,96.0,70.0,39.0,85.0,20345.0,20385.0,16.0,18354.0,9.0,16.0,1440.0,17.0,8.0
utracan,42154,-37.439212799,-65.023735046,la pampa,14839.0,90.0,50.0,79.0,96.0,5005.0,5036.0,8.0,4927.0,1.0,2.0,66.0,3.0,1.0
adolfo alsina,6007,-37.046226443,-63.266821042,buenos aires,17072.0,84.0,38.0,64.0,95.0,4199.0,6266.0,12.0,6097.0,2.0,3.0,92.0,3.0,1.0
rio primero,14105,-30.805935463,-63.173242925,cordoba,46675.0,82.0,2.0,11.0,92.0,13652.0,13675.0,12.0,13142.0,3.0,6.0,386.0,8.0,4.0
cafayate,66021,-26.10228924,-66.015506705,salta,14850.0,89.0,77.0,0.0,80.0,3555.0,3603.0,16.0,2892.0,18.0,24.0,204.0,19.0,9.0
sarmiento,86182,-28.081445866,-63.33466823,santiago del estero,4607.0,56.0,0.0,0.0,57.0,1057.0,1060.0,24.0,1041.0,1.0,34.0,347.0,28.0,12.0
mercedes,18105,-29.060000001,-57.760000021,corrientes,40667.0,88.0,50.0,0.0,88.0,11172.0,11200.0,20.0,10638.0,4.0,8.0,457.0,12.0,5.0
lobos,6483,-35.2649767,-59.0698098,buenos aires,36172.0,60.0,26.0,40.0,96.0,11749.0,11769.0,10.0,11007.0,6.0,8.0,234.0,4.0,2.0
general guemes,22063,-25.704138218,-61.031502727,chaco,67132.0,58.0,1.0,0.0,57.0,17243.0,17298.0,20.0,16065.0,6.0,25.0,3303.0,35.0,12.0
ojo de agua,86126,-29.72712,-63.42753,santiago del estero,14008.0,50.0,0.0,0.0,81.0,3784.0,3796.0,12.0,3471.0,8.0,15.0,261.0,18.0,5.0
azul,6049,-37.0314689,-59.6042326,buenos aires,65280.0,90.0,70.0,78.0,97.0,22020.0,22075.0,9.0,21050.0,4.0,4.0,272.0,3.0,2.0
ensenada,6245,-34.875848555,-57.933629899,buenos aires,56729.0,99.0,47.0,64.0,96.0,17443.0,17470.0,16.0,16486.0,5.0,12.0,1154.0,10.0,2.0
moreno,86119,-27.413858414,-63.065467834,santiago del estero,32130.0,62.0,0.0,0.0,75.0,7467.0,7497.0,18.0,6013.0,19.0,38.0,1417.0,25.0,11.0
catamarca capital,10049,-28.332107544,-65.894065857,catamarca,159703.0,97.0,82.0,38.0,94.0,42037.0,42130.0,9.0,38408.0,8.0,10.0,656.0,8.0,4.0
confluencia,58035,-38.752823157,-68.837738725,neuquen,362673.0,96.0,79.0,88.0,96.0,113864.0,114064.0,13.0,105919.0,6.0,10.0,4175.0,8.0,4.0
daireaux,6231,-36.752182007,-61.815643311,buenos aires,16889.0,79.0,57.0,51.0,96.0,5479.0,5491.0,9.0,5284.0,3.0,5.0,82.0,4.0,2.0
lavalle,50056,-32.810136757,-67.221782078,mendoza,36738.0,75.0,22.0,18.0,85.0,9269.0,9271.0,20.0,8612.0,7.0,13.0,599.0,18.0,6.0
conesa,62028,-40.220565796,-64.070602417,rio negro,7069.0,78.0,6.0,72.0,93.0,2254.0,2266.0,13.0,2179.0,3.0,8.0,109.0,9.0,3.0
tafi del valle,90098,-26.596217,-65.8573856,tucuman,14933.0,70.0,0.0,0.0,79.0,29772.0,4027.0,10.0,26614.0,10.0,12.0,1641.0,15.0,3.0
gobernador dupuy,74042,-34.823871612,-66.448936462,san luis,11779.0,83.0,10.0,0.0,87.0,3508.0,3524.0,17.0,3394.0,3.0,7.0,145.0,12.0,5.0
los andes,66105,-24.654569626,-67.303604126,salta,6050.0,81.0,36.0,46.0,51.0,1250.0,1292.0,18.0,1110.0,11.0,26.0,185.0,27.0,11.0
comuna 8,2008,-34.674993579,-58.476162985,ciudad de buenos aires,187237.0,98.0,93.0,63.0,92.0,57119.0,58254.0,18.0,48631.0,16.0,17.0,799.0,11.0,5.0
caseros,82014,-33.2334798,-61.682947,santa fe,82100.0,85.0,44.0,54.0,97.0,27951.0,28010.0,9.0,26764.0,4.0,5.0,306.0,3.0,1.0
trenque lauquen,6826,-36.0383096,-62.8210281,buenos aires,43021.0,87.0,81.0,48.0,92.0,14519.0,14538.0,7.0,13772.0,5.0,6.0,155.0,3.0,1.0
metan,66112,-25.51643753,-64.605926514,salta,40351.0,91.0,65.0,38.0,85.0,10128.0,10144.0,23.0,9312.0,8.0,17.0,1007.0,18.0,6.0
general taboada,86077,-28.41299021,-62.79434139,santiago del estero,38105.0,62.0,0.0,0.0,76.0,9073.0,9108.0,16.0,8319.0,8.0,22.0,1330.0,19.0,8.0
ushuaia,94014,-54.637686083,-67.766940855,tierra del fuego antartida e islas del atlantico sur,56956.0,93.0,87.0,88.0,94.0,17538.0,17688.0,16.0,16891.0,3.0,14.0,1855.0,13.0,2.0
san vicente,6778,-35.183110002,-58.452410024,buenos aires,59478.0,51.0,47.0,72.0,96.0,17116.0,17121.0,13.0,16377.0,4.0,13.0,1501.0,15.0,6.0
general lamadrid,46077,-28.976200104,-68.214889526,la rioja,1734.0,94.0,0.0,0.0,87.0,484.0,487.0,13.0,475.0,1.0,11.0,49.0,9.0,4.0
jachal,70056,-30.20949542,-68.74673275,san juan,21730.0,91.0,0.0,0.0,92.0,5365.0,5386.0,25.0,4996.0,6.0,16.0,501.0,9.0,3.0
rawson,26077,-43.315554025,-65.3717721,chubut,131313.0,98.0,83.0,95.0,96.0,41187.0,41276.0,12.0,39372.0,4.0,5.0,603.0,6.0,3.0
general paz,18063,-27.705562904,-57.794965844,corrientes,14836.0,72.0,30.0,0.0,72.0,2387.0,4148.0,26.0,2287.0,4.0,25.0,188.0,16.0,7.0
comuna 4,2004,-34.646413551,-58.384271032,ciudad de buenos aires,218245.0,99.0,94.0,77.0,95.0,75144.0,76562.0,14.0,69680.0,8.0,10.0,1047.0,12.0,3.0
comuna 10,2010,-34.627686291,-58.483587278,ciudad de buenos aires,166022.0,99.0,98.0,97.0,98.0,61133.0,61545.0,11.0,58332.0,5.0,5.0,170.0,3.0,0.0
almirante brown,6028,-34.801558074,-58.391467719,buenos aires,552902.0,49.0,15.0,57.0,94.0,156918.0,157010.0,15.0,142614.0,9.0,13.0,7328.0,10.0,4.0
general alvear,50014,-35.16899569,-66.50196772,mendoza,46429.0,93.0,39.0,57.0,94.0,57375.0,14789.0,15.0,52897.0,7.0,6.0,706.0,7.0,2.0
tala,30091,-31.99620378,-59.24649058,entre rios,25665.0,86.0,56.0,23.0,92.0,8406.0,8423.0,14.0,8143.0,3.0,4.0,133.0,6.0,3.0
benito juarez,6084,-37.5763984,-60.1392005,buenos aires,20239.0,89.0,52.0,78.0,97.0,6786.0,6835.0,8.0,6638.0,2.0,3.0,73.0,3.0,1.0
general viamonte,6385,-35.1438182,-61.2992596,buenos aires,18078.0,56.0,50.0,62.0,96.0,6286.0,6304.0,10.0,6172.0,1.0,2.0,71.0,3.0,1.0
baradero,6070,-33.8417492,-59.4518203,buenos aires,32761.0,91.0,59.0,40.0,94.0,10416.0,10444.0,10.0,10001.0,3.0,7.0,283.0,5.0,2.0
curaco,42042,-38.741340766,-66.436065336,la pampa,1040.0,72.0,0.0,0.0,82.0,360.0,365.0,17.0,347.0,3.0,3.0,22.0,11.0,3.0
ramon lista,34063,-23.18007636,-62.03032748,formosa,13754.0,50.0,0.0,0.0,25.0,2796.0,2806.0,35.0,2665.0,4.0,62.0,1606.0,68.0,38.0
general villegas,6392,-34.8579191,-63.1611931,buenos aires,30864.0,41.0,39.0,44.0,95.0,10342.0,10362.0,10.0,10120.0,2.0,3.0,190.0,6.0,2.0
coronel de marina l rosales,6182,-38.93877,-61.96122,buenos aires,62152.0,97.0,80.0,67.0,97.0,5689.0,19479.0,7.0,18705.0,3.0,4.0,134.0,2.0,1.0
colon,30008,-31.70735861,-58.28660961,entre rios,62160.0,89.0,66.0,22.0,96.0,19963.0,20030.0,12.0,19064.0,4.0,8.0,825.0,7.0,2.0
beron de astrada,18014,-27.464210061,-57.464626522,corrientes,2461.0,78.0,0.0,0.0,77.0,676.0,685.0,34.0,662.0,2.0,18.0,111.0,19.0,11.0
las heras,50049,-32.240089416,-69.455314636,mendoza,203666.0,89.0,86.0,68.0,94.0,53978.0,54116.0,17.0,49369.0,8.0,11.0,1690.0,7.0,4.0
zonda,70133,-31.774671555,-68.914604187,san juan,4863.0,90.0,0.0,0.0,90.0,1196.0,1200.0,26.0,1101.0,7.0,20.0,149.0,13.0,6.0
magdalena,6505,-35.175444975,-57.518948583,buenos aires,19301.0,74.0,47.0,69.0,96.0,5358.0,5375.0,10.0,5145.0,3.0,8.0,260.0,7.0,2.0
adolfo alsina,62007,-40.633583069,-63.509506226,rio negro,57678.0,95.0,83.0,88.0,95.0,18345.0,18394.0,10.0,17651.0,3.0,6.0,432.0,6.0,3.0
independencia,46105,-30.44523,-67.359382,la rioja,2427.0,78.0,0.0,0.0,71.0,643.0,645.0,12.0,629.0,2.0,14.0,82.0,25.0,6.0
general jose de san martin,66056,-22.164599818,-63.9088426,salta,156910.0,92.0,44.0,35.0,74.0,37915.0,38005.0,26.0,34711.0,8.0,23.0,5860.0,26.0,11.0
rivadavia,50084,-33.474016601,-68.809692869,mendoza,56373.0,88.0,39.0,53.0,94.0,15884.0,15901.0,17.0,14975.0,5.0,7.0,360.0,7.0,3.0
zapala,58112,-38.822467804,-70.008003235,neuquen,36549.0,93.0,81.0,87.0,91.0,10735.0,10765.0,14.0,10263.0,4.0,8.0,450.0,12.0,5.0
federacion,30028,-30.706810067,-57.887849136,entre rios,68736.0,85.0,76.0,12.0,93.0,19378.0,19459.0,14.0,18437.0,4.0,8.0,796.0,10.0,4.0
berisso,6098,-34.845876055,-57.879733357,buenos aires,88470.0,97.0,40.0,50.0,95.0,27449.0,27474.0,14.0,25778.0,6.0,13.0,2109.0,11.0,3.0
castellanos,82021,-31.381849289,-61.370059967,santa fe,178092.0,76.0,51.0,30.0,97.0,56560.0,56635.0,9.0,53134.0,6.0,6.0,518.0,5.0,3.0
san roque,18161,-28.883931336,-58.78485627,corrientes,18366.0,84.0,15.0,0.0,76.0,4684.0,4693.0,28.0,4513.0,3.0,14.0,529.0,22.0,8.0
collon cura,58028,-40.229343414,-70.307525635,neuquen,4532.0,84.0,63.0,78.0,80.0,1316.0,1322.0,12.0,1293.0,1.0,5.0,51.0,12.0,4.0
san martin,82126,-31.842542648,-61.562709808,santa fe,63842.0,32.0,56.0,40.0,97.0,21473.0,21524.0,9.0,20787.0,3.0,4.0,178.0,3.0,1.0
roque perez,6693,-35.41999054,-59.665016176,buenos aires,12513.0,51.0,35.0,76.0,98.0,4295.0,4305.0,10.0,4216.0,1.0,4.0,113.0,4.0,2.0
pellegrini,6616,-36.3151294,-63.2094531,buenos aires,5887.0,78.0,68.0,65.0,96.0,2100.0,2100.0,8.0,2006.0,4.0,5.0,26.0,3.0,1.0
san martin,86175,-28.2954,-63.86655,santiago del estero,9831.0,41.0,0.0,0.0,59.0,2261.0,2267.0,34.0,2066.0,8.0,48.0,897.0,35.0,12.0
rancul,42126,-35.08643621,-64.92315252,la pampa,10668.0,85.0,0.0,77.0,95.0,3497.0,3507.0,12.0,3408.0,2.0,4.0,59.0,4.0,2.0
pilcomayo,34049,-25.117113113,-58.188476565,formosa,85024.0,72.0,25.0,0.0,82.0,21932.0,21966.0,16.0,20504.0,6.0,18.0,2560.0,15.0,8.0
malargue,50077,-36.479148865,-69.826599121,mendoza,27660.0,84.0,1.0,71.0,83.0,7820.0,7923.0,16.0,7090.0,9.0,13.0,303.0,14.0,5.0
loventue,42098,-36.723377228,-65.224739075,la pampa,8619.0,89.0,3.0,50.0,94.0,2824.0,2835.0,11.0,2787.0,1.0,2.0,39.0,4.0,1.0
graneros,90035,-27.6423966,-65.5086366,tucuman,13551.0,71.0,0.0,0.0,77.0,3481.0,3487.0,14.0,3367.0,3.0,11.0,281.0,21.0,9.0
calingasta,70021,-31.30289373,-69.41260371,san juan,8588.0,85.0,0.0,0.0,86.0,2117.0,2151.0,26.0,2016.0,4.0,25.0,435.0,11.0,4.0
olavarria,6595,-36.8410918,-60.4478581,buenos aires,111708.0,74.0,43.0,33.0,94.0,36865.0,36968.0,9.0,35843.0,2.0,3.0,258.0,3.0,2.0
general las heras,6329,-34.8223015,-59.1343749,buenos aires,14889.0,54.0,21.0,64.0,96.0,4641.0,4643.0,10.0,4466.0,3.0,6.0,124.0,6.0,3.0
famailla,90028,-27.11478,-65.42955,tucuman,34542.0,90.0,45.0,22.0,89.0,8019.0,8025.0,22.0,7251.0,9.0,15.0,505.0,17.0,8.0
paso de los libres,18119,-29.87793885,-57.53288465,corrientes,48642.0,89.0,60.0,0.0,90.0,13254.0,13282.0,18.0,12053.0,9.0,16.0,997.0,13.0,5.0
san nicolas,6763,-33.6042287,-60.4178226,buenos aires,145857.0,98.0,58.0,45.0,95.0,45051.0,45120.0,11.0,42725.0,5.0,7.0,947.0,5.0,2.0
ischilin,14049,-30.643234976,-64.498512768,cordoba,31312.0,88.0,1.0,24.0,91.0,8734.0,8759.0,13.0,8389.0,3.0,5.0,163.0,9.0,4.0
san isidro,6756,-34.479401812,-58.5074044,buenos aires,292878.0,98.0,80.0,45.0,96.0,97213.0,97327.0,10.0,91830.0,5.0,6.0,1371.0,3.0,1.0
pocho,14077,-31.319328308,-65.617858887,cordoba,5380.0,46.0,0.0,0.0,73.0,1611.0,1617.0,16.0,1563.0,2.0,23.0,333.0,24.0,6.0
chical co,42063,-36.160430908,-68.129722595,la pampa,1502.0,67.0,0.0,18.0,77.0,474.0,476.0,8.0,462.0,2.0,9.0,11.0,17.0,6.0
navarro,6574,-35.0117915,-59.4247779,buenos aires,17054.0,79.0,34.0,25.0,96.0,5321.0,5330.0,12.0,5210.0,2.0,4.0,111.0,5.0,2.0
san cosme,18133,-27.363933134,-58.661982433,corrientes,14381.0,68.0,2.0,0.0,86.0,3882.0,3918.0,20.0,3690.0,4.0,11.0,243.0,15.0,6.0
leales,90056,-27.140039444,-65.134643555,tucuman,54949.0,68.0,11.0,10.0,90.0,13663.0,13674.0,17.0,13127.0,3.0,9.0,804.0,15.0,6.0
cruz del eje,14028,-31.0893001,-65.0484771,cordoba,58759.0,89.0,18.0,0.0,86.0,15948.0,16019.0,17.0,15265.0,4.0,7.0,571.0,14.0,6.0
san alberto,14126,-31.790562747,-65.167101871,cordoba,37004.0,79.0,0.0,0.0,86.0,10320.0,10668.0,12.0,9816.0,4.0,8.0,406.0,13.0,6.0
general donovan,22056,-27.1738508,-59.26113326,chaco,13490.0,86.0,2.0,0.0,82.0,3698.0,3704.0,25.0,3576.0,3.0,9.0,241.0,14.0,6.0
escobar,6252,-34.3007971,-58.7215474,buenos aires,213619.0,23.0,15.0,60.0,97.0,59981.0,60023.0,14.0,54876.0,8.0,13.0,3220.0,11.0,5.0
saladas,18126,-28.320760537,-58.546449426,corrientes,22244.0,78.0,26.0,0.0,79.0,5638.0,5653.0,26.0,5470.0,2.0,22.0,1082.0,24.0,7.0
las colonias,82070,-31.6618986,-61.0112577,santa fe,104946.0,83.0,46.0,42.0,97.0,34327.0,34402.0,8.0,33042.0,3.0,4.0,321.0,3.0,1.0
el alto,10056,-28.37478,-65.15865,catamarca,3570.0,60.0,0.0,0.0,82.0,1042.0,1054.0,13.0,1015.0,2.0,8.0,63.0,18.0,4.0
lincoln,6469,-35.4981702,-61.8064882,buenos aires,41808.0,81.0,51.0,80.0,97.0,14528.0,14548.0,13.0,14063.0,3.0,4.0,163.0,3.0,1.0
rio cuarto,14098,-32.647510949,-64.221418594,cordoba,246393.0,93.0,58.0,58.0,97.0,80878.0,81100.0,10.0,78485.0,2.0,3.0,774.0,4.0,2.0
coronel felipe varela,46028,-29.280702591,-68.155670166,la rioja,9648.0,88.0,0.0,0.0,86.0,2617.0,2633.0,10.0,2513.0,3.0,8.0,201.0,15.0,3.0
chos malal,58042,-37.06895161,-70.38454137,neuquen,15256.0,90.0,25.0,83.0,90.0,4600.0,4633.0,18.0,4442.0,3.0,8.0,212.0,10.0,4.0
saladillo,6707,-35.6504504,-59.8096018,buenos aires,32103.0,85.0,50.0,46.0,96.0,10768.0,10787.0,9.0,10512.0,2.0,3.0,145.0,3.0,1.0
general la madrid,6322,-37.530620575,-61.569114685,buenos aires,10783.0,61.0,8.0,57.0,97.0,3777.0,3791.0,11.0,3689.0,2.0,3.0,44.0,3.0,1.0
general alvarado,6280,-38.222449169,-57.895726732,buenos aires,39594.0,89.0,57.0,63.0,96.0,12732.0,12798.0,13.0,12339.0,3.0,5.0,363.0,6.0,3.0
coronel pringles,6196,-37.9951979,-60.8897785,buenos aires,22933.0,85.0,68.0,63.0,95.0,13451.0,8115.0,21.0,7888.0,2.0,3.0,68.0,3.0,2.0
guaymallen,50028,-32.920761473,-68.707118584,mendoza,283803.0,91.0,79.0,75.0,96.0,79770.0,79901.0,14.0,73330.0,8.0,10.0,1542.0,6.0,3.0
yerba buena,90119,-26.778963958,-65.285320842,tucuman,75076.0,86.0,21.0,59.0,96.0,18560.0,18573.0,14.0,17171.0,7.0,10.0,628.0,8.0,3.0
islas del ibicuy,30063,-33.778770704,-58.54070986,entre rios,12077.0,62.0,21.0,0.0,86.0,3445.0,3473.0,21.0,3369.0,2.0,15.0,459.0,19.0,5.0
nogoya,30077,-32.172979005,-59.563413013,entre rios,39026.0,81.0,68.0,20.0,93.0,12207.0,12227.0,14.0,11878.0,2.0,4.0,191.0,6.0,3.0
vinchina,46098,-28.508514404,-68.508041382,la rioja,2731.0,91.0,0.0,0.0,85.0,766.0,776.0,15.0,749.0,2.0,8.0,48.0,11.0,3.0
san javier,14133,-32.01613487,-65.163820049,cordoba,53520.0,90.0,1.0,19.0,90.0,15855.0,15981.0,13.0,15006.0,5.0,8.0,428.0,10.0,5.0
san miguel,18154,-27.781728535,-57.311626934,corrientes,10572.0,71.0,0.0,0.0,59.0,2553.0,2566.0,37.0,2473.0,3.0,31.0,722.0,27.0,13.0
san rafael,50105,-34.220188141,-67.911636352,mendoza,188018.0,90.0,35.0,55.0,93.0,56391.0,56630.0,16.0,54276.0,3.0,6.0,1272.0,7.0,3.0
ambato,10007,-27.89856,-65.97863,catamarca,4463.0,77.0,0.0,0.0,90.0,1294.0,1316.0,15.0,1250.0,3.0,7.0,58.0,10.0,3.0
chacabuco,6210,-34.66495,-60.441390001,buenos aires,48703.0,90.0,75.0,84.0,98.0,16496.0,16515.0,10.0,15624.0,5.0,6.0,212.0,4.0,2.0
san javier,54105,-27.751202788,-55.008955767,misiones,20906.0,56.0,3.0,0.0,81.0,5714.0,5730.0,22.0,5412.0,5.0,13.0,478.0,16.0,3.0
arrecifes,6077,-33.9628001,-59.8615291,buenos aires,29044.0,93.0,62.0,60.0,95.0,9546.0,9563.0,10.0,9212.0,3.0,6.0,154.0,4.0,1.0
9 de julio,82077,-29.075847203,-61.736250688,santa fe,29832.0,47.0,8.0,0.0,85.0,8744.0,8767.0,15.0,8412.0,3.0,7.0,288.0,15.0,6.0
san martin,50098,-33.035971682,-68.47084072,mendoza,118220.0,88.0,53.0,49.0,94.0,32730.0,32778.0,16.0,30409.0,7.0,9.0,837.0,9.0,4.0
puan,6651,-38.2787652,-63.308047,buenos aires,15743.0,86.0,16.0,58.0,96.0,6328.0,6354.0,8.0,6243.0,1.0,2.0,65.0,1.0,0.0
caucete,70035,-31.70272711,-68.28587359,san juan,38343.0,90.0,54.0,41.0,89.0,9452.0,9463.0,26.0,8852.0,6.0,20.0,1383.0,15.0,8.0
berazategui,6091,-34.832640469,-58.100841229,buenos aires,324244.0,94.0,66.0,67.0,95.0,93164.0,93205.0,14.0,86248.0,7.0,12.0,4339.0,10.0,4.0
oran,66126,-22.9746,-64.41384,salta,138838.0,90.0,60.0,24.0,76.0,31859.0,31940.0,25.0,29100.0,8.0,27.0,6102.0,30.0,11.0
san pedro,6770,-33.6362648,-59.7862782,buenos aires,59036.0,92.0,71.0,59.0,97.0,18441.0,18479.0,16.0,17409.0,5.0,9.0,673.0,7.0,3.0
silipica,86189,-28.10344,-64.08491,santiago del estero,7712.0,57.0,0.0,0.0,66.0,1819.0,1820.0,27.0,1620.0,10.0,30.0,350.0,27.0,12.0
lules,90063,-26.94954,-65.30289,tucuman,68474.0,89.0,44.0,30.0,89.0,16361.0,16379.0,21.0,14607.0,10.0,18.0,1305.0,18.0,7.0
san martin,18147,-29.361106301,-56.802426101,corrientes,13140.0,81.0,24.0,0.0,81.0,3661.0,3702.0,23.0,3525.0,3.0,13.0,367.0,14.0,5.0
hipolito yrigoyen,6406,-36.1793412,-61.6445672,buenos aires,9585.0,86.0,57.0,40.0,96.0,3295.0,3305.0,8.0,3206.0,2.0,3.0,36.0,3.0,1.0
ezeiza,6270,-34.9645699,-58.5460971,buenos aires,163722.0,17.0,16.0,62.0,96.0,44487.0,44519.0,13.0,41661.0,6.0,12.0,2705.0,14.0,7.0
general belgrano,22049,-26.965077007,-61.030713589,chaco,11988.0,33.0,0.0,0.0,73.0,3078.0,3083.0,24.0,2931.0,4.0,9.0,142.0,24.0,6.0
iruya,66070,-22.7747986,-65.14338644,salta,5987.0,60.0,13.0,0.0,30.0,1504.0,1511.0,9.0,1366.0,9.0,33.0,362.0,27.0,10.0
rio chico,90077,-27.4543092,-65.603622,tucuman,56847.0,91.0,45.0,24.0,90.0,14088.0,14101.0,15.0,13097.0,7.0,10.0,469.0,14.0,6.0
moreno,6560,-34.558659572,-58.816301089,buenos aires,452505.0,41.0,18.0,56.0,96.0,124016.0,124081.0,17.0,114125.0,7.0,13.0,6866.0,12.0,6.0
toay,42140,-36.87195836,-64.78146927,la pampa,12409.0,62.0,48.0,71.0,96.0,3836.0,3847.0,8.0,3743.0,2.0,3.0,57.0,4.0,2.0
santa barbara,38070,-24.135713577,-64.588111877,jujuy,17730.0,86.0,35.0,0.0,72.0,4369.0,4380.0,20.0,3923.0,10.0,21.0,512.0,25.0,11.0
juan b alberdi,90042,-27.60163,-65.5373,tucuman,30237.0,85.0,54.0,39.0,88.0,7554.0,7561.0,25.0,7148.0,5.0,9.0,336.0,16.0,7.0
telsen,26105,-42.770240784,-67.66608429,chubut,1644.0,67.0,0.0,0.0,66.0,632.0,640.0,17.0,591.0,6.0,10.0,24.0,6.0,3.0
picun leufu,58098,-39.183082581,-69.37890625,neuquen,4578.0,76.0,58.0,59.0,86.0,1461.0,1467.0,19.0,1428.0,2.0,5.0,54.0,10.0,4.0
mburucuya,18098,-27.957044103,-57.937049714,corrientes,9252.0,75.0,26.0,0.0,72.0,2524.0,2529.0,27.0,2482.0,1.0,16.0,386.0,21.0,9.0
chamical,46035,-30.38569434,-66.26041862,la rioja,14160.0,95.0,9.0,18.0,87.0,4058.0,4072.0,14.0,3911.0,3.0,9.0,215.0,13.0,5.0
fray mamerto esquiu,10063,-28.301939011,-65.72743988,catamarca,11896.0,99.0,6.0,10.0,95.0,3019.0,3021.0,11.0,2844.0,5.0,7.0,48.0,8.0,4.0
san lorenzo,22147,-27.252048067,-60.516104742,chaco,14702.0,69.0,1.0,0.0,70.0,3992.0,3997.0,35.0,3759.0,5.0,10.0,192.0,21.0,7.0
rio senguer,26084,-45.68628224,-70.26062851,chubut,5979.0,79.0,14.0,59.0,74.0,1984.0,2036.0,18.0,1848.0,6.0,9.0,61.0,8.0,1.0
concepcion,18028,-28.268879386,-58.121856392,corrientes,21113.0,86.0,4.0,0.0,68.0,5205.0,5220.0,31.0,5024.0,3.0,42.0,2025.0,39.0,10.0
tehuelches,26098,-43.827476502,-69.90713501,chubut,5390.0,87.0,5.0,74.0,75.0,1793.0,1834.0,22.0,1717.0,4.0,6.0,49.0,9.0,3.0
lujan,6497,-34.4619848,-59.1744878,buenos aires,106273.0,48.0,39.0,46.0,96.0,32524.0,32595.0,10.0,30978.0,4.0,7.0,873.0,6.0,2.0
comuna 6,2006,-34.6168255,-58.44360311,ciudad de buenos aires,176076.0,99.0,99.0,98.0,99.0,74973.0,75302.0,9.0,72942.0,3.0,3.0,130.0,2.0,0.0
juan f ibarra,86098,-27.95003,-61.84724,santiago del estero,18051.0,51.0,0.0,0.0,67.0,4180.0,4187.0,21.0,3787.0,9.0,38.0,1207.0,25.0,9.0
iglesia,70049,-30.270130157,-69.191162109,san juan,9099.0,92.0,0.0,0.0,88.0,1753.0,1770.0,21.0,1680.0,4.0,17.0,230.0,15.0,6.0
tornquist,6819,-38.41312,-62.79452,buenos aires,12723.0,84.0,42.0,65.0,94.0,4538.0,4565.0,8.0,4472.0,1.0,2.0,51.0,3.0,1.0
comuna 1,2001,-34.625047864,-58.384387226,ciudad de buenos aires,205886.0,98.0,94.0,82.0,91.0,82373.0,85079.0,12.0,78360.0,7.0,9.0,955.0,15.0,3.0
biedma,26007,-42.329257965,-65.631347656,chubut,82883.0,97.0,85.0,90.0,95.0,24471.0,24667.0,11.0,23008.0,5.0,8.0,662.0,8.0,5.0
junin,6413,-34.5109222,-60.865793,buenos aires,90305.0,92.0,84.0,55.0,96.0,30315.0,30389.0,8.0,29073.0,4.0,5.0,419.0,4.0,2.0
languineo,26056,-42.66468787,-70.44354981,chubut,3085.0,66.0,41.0,29.0,61.0,1073.0,1094.0,15.0,957.0,10.0,15.0,50.0,13.0,2.0
iguazu,54063,-25.86430349,-54.55489168,misiones,82227.0,71.0,10.0,0.0,84.0,21466.0,21590.0,18.0,20617.0,3.0,14.0,2257.0,21.0,6.0
florencio varela,6274,-34.827580703,-58.222912004,buenos aires,426005.0,76.0,27.0,36.0,94.0,113135.0,113194.0,18.0,104128.0,7.0,16.0,9606.0,17.0,7.0
laprida,6448,-37.52471,-60.961140001,buenos aires,10210.0,86.0,50.0,34.0,92.0,3472.0,3482.0,9.0,3373.0,2.0,3.0,19.0,3.0,1.0
general san martin,14042,-32.341236927,-62.996217056,cordoba,127454.0,81.0,61.0,68.0,97.0,41871.0,41962.0,8.0,40341.0,3.0,4.0,427.0,4.0,2.0
sarmiento,26091,-45.597201576,-69.14443499,chubut,11396.0,94.0,74.0,90.0,92.0,3262.0,3283.0,12.0,3059.0,6.0,7.0,52.0,8.0,3.0
san carlos,66154,-25.54455,-65.82056,salta,7016.0,63.0,46.0,0.0,61.0,1652.0,1663.0,30.0,1415.0,14.0,29.0,245.0,21.0,8.0
patino,34035,-24.61192,-60.300329999,formosa,68581.0,62.0,1.0,0.0,64.0,18856.0,18916.0,22.0,17939.0,4.0,20.0,3000.0,26.0,11.0
iriondo,82056,-32.929034308,-61.265623766,santa fe,66675.0,89.0,62.0,47.0,97.0,21896.0,21953.0,11.0,21042.0,3.0,4.0,237.0,4.0,2.0
rosario,82084,-33.079010075,-60.913799568,santa fe,1193605.0,96.0,61.0,67.0,96.0,392533.0,393104.0,14.0,354507.0,9.0,12.0,10256.0,6.0,2.0
minas,58077,-37.05693858,-70.77617021,neuquen,7234.0,75.0,41.0,51.0,86.0,2195.0,2207.0,17.0,1978.0,9.0,14.0,104.0,13.0,4.0
laishi,34021,-26.652492523,-58.341789248,formosa,17063.0,66.0,4.0,0.0,74.0,4538.0,4545.0,27.0,4360.0,3.0,16.0,572.0,20.0,10.0
chicligasta,90021,-27.3126707,-65.4820785,tucuman,80735.0,92.0,51.0,28.0,90.0,19864.0,19890.0,15.0,18348.0,7.0,12.0,934.0,15.0,7.0
brandsen,6119,-34.9854674,-58.1762428,buenos aires,26367.0,63.0,34.0,91.0,98.0,8324.0,8336.0,10.0,8016.0,3.0,8.0,360.0,8.0,3.0
misiones capital,54028,-27.476594927,-55.921699607,misiones,324756.0,92.0,43.0,0.0,91.0,93120.0,93276.0,16.0,87471.0,6.0,12.0,5935.0,11.0,3.0
san javier,82098,-29.42420679,-59.979554751,santa fe,30959.0,72.0,8.0,0.0,81.0,9103.0,9123.0,24.0,8737.0,4.0,15.0,1011.0,11.0,7.0
maipu,6511,-37.0161454,-57.4884889,buenos aires,10188.0,90.0,44.0,65.0,97.0,3447.0,3454.0,9.0,3369.0,2.0,4.0,84.0,4.0,2.0
leandro n alem,6462,-34.4448464,-61.3192363,buenos aires,16799.0,65.0,56.0,30.0,96.0,5783.0,5797.0,9.0,5653.0,2.0,3.0,75.0,4.0,1.0
comuna 14,2014,-34.573899984,-58.422436452,ciudad de buenos aires,225970.0,99.0,99.0,96.0,98.0,102623.0,103104.0,9.0,99552.0,3.0,3.0,282.0,2.0,0.0
colon,14021,-31.256244809,-63.953403942,cordoba,225151.0,91.0,13.0,27.0,95.0,63780.0,63993.0,12.0,60380.0,5.0,6.0,792.0,7.0,4.0