departamento_id,departamento_nombre,lat_dep,lon_dep,estacion_id,estacion_id_interno,estacion_nombre,lat_est,lon_est,distancia_km
82105,san jeronimo,-32.2399352,-61.231266,297,A872868,Las Rosas - EEA Oliveros,-32.49,-61.57,42.253384224943304
38112,yavi,-22.32981174,-65.82598231,516,A872923,Abra Pampa - EEA Abra Pampa,-22.8,-65.83,52.069336689578506
62035,el cuy,-39.866718292,-68.703437805,519,A872947,Plottier - IPAF Patagonia,-38.95,-68.33,106.73777076955108
6623,pergamino,-33.5893048,-60.7727646,236,A872814,Alfonso - EEA Pergamino,-33.91,-60.84,36.112224072989534
6868,villa gesell,-37.336673158,-57.032501469,368,A872833,Las Armas - EEA Cuenca Salado,-37.09,-57.87,79.21860873032367
6343,general paz,-35.451905725,-58.269541772,472,A872806,Chascomus - EEA Cuenca Salado,-35.74,-58.05,37.65029874462727
42007,atreuco,-37.126296112,-63.82921122,233,A872823,Anguil -EEA Anguil,-36.54,-63.99,66.62612156942113
62091,25 de mayo,-41.5127138,-69.51735638,667,A872898,Ing. Jacobacci - EEA Bariloche,-41.33,-69.55,20.475238390650166
70077,rawson,-31.6492,-68.5015,444,A872929,Pocito - EEA San juan,-31.66,-68.59,8.478831819088379
6315,general juan madariaga,-37.024627686,-56.956073761,368,A872833,Las Armas - EEA Cuenca Salado,-37.09,-57.87,81.61178390885632
22119,presidencia de la plaza,-26.84889313,-59.87023116,445,A872901,P. de la Plaza -EEA Sáenz Peña,-26.93,-59.8,11.37756851101747
70007,albardon,-31.326969147,-68.417236328,444,A872929,Pocito - EEA San juan,-31.66,-68.59,40.4095855621454
6655,punta indio,-35.350566,-57.297616,472,A872806,Chascomus - EEA Cuenca Salado,-35.74,-58.05,80.75586327631709
6466,lezama,-35.874824873,-57.896422676,472,A872806,Chascomus - EEA Cuenca Salado,-35.74,-58.05,20.407386318330495
94035,tolhuin,-54.511386755,-67.195804464,339,A872859,San Sebastian - EEA Santa Cruz,-52.89,-68.45,198.55430903649423
46021,castro barros,-28.9634753,-66.99905992,392,A872884,Sumalao - EEA Catamarca,-28.47,-65.73,135.5168255512253
46091,general san martin,-31.692226058,-65.886039021,477,A872826,Villa Dolores - EEA Manfredi,-31.94,-65.22,68.7861836894808
6882,zarate,-33.9804188,-59.2846864,230,A872834,Lima - EEA San Pedro,-33.97,-59.31,2.6091700556234447
22105,9 de julio,-27.017018676,-61.187428084,45,NH0416,INTA - Las Breñas (EMC),-27.1,-61.1,12.639870765848215
86091,jimenez,-26.688954306,-64.454471239,507,A872877,Trancas - EEA Famaillá,-26.28,-65.27,93.08296725086795
22077,libertad,-27.269456708,-59.211222328,377,A872891,Col Popular - EEA Col Benitez,-27.27,-59.14,7.052476693976301
86028,avellaneda,-28.70814175,-63.1050531,251,A872811,Bandera - EEA EEA Quimilí,-28.89,-62.27,83.97798706549378
94007,rio grande,-52.884128633,-68.448783124,339,A872859,San Sebastian - EEA Santa Cruz,-52.89,-68.45,0.6585042949426697
86154,rivadavia,-29.83512,-62.16991,293,A872864,Ceres - EEA Rafaela,-29.87,-61.96,20.64853079259306
2007,comuna 7,-34.63680708,-58.458269851,706,A872995,A872995 - CITEDEF-INTA,-34.56,-58.51,9.752750122815893
42028,catrilo,-36.67294558,-63.66446349,233,A872823,Anguil -EEA Anguil,-36.54,-63.99,32.64852723997914
38049,rinconada,-22.53894,-65.96138,516,A872923,Abra Pampa - EEA Abra Pampa,-22.8,-65.83,31.90720730665929
46119,san blas de los sauces,-28.320748457,-67.053376066,393,A872885,Andalgala - EEA Catamarca,-27.61,-66.33,106.15847079750316
6455,las flores,-36.3036243,-59.3193839,473,A872837,Rauch - EEA Cuenca Salado,-36.8,-59.11,58.18503664487443
6679,rivadavia,-35.4640821,-62.8552805,367,A872906,Trenque Lauquen - EEA Villegas,-35.97,-62.77,56.661397970739955
22098,mayor luis j fontana,-27.689552867,-60.834887832,502,A872958,Du Graty - EEA Sáenz Peña,-27.7,-60.91,7.498789557173845
94021,islas del atlantico sur,-51.806531825,-58.959658956,339,A872859,San Sebastian - EEA Santa Cruz,-52.89,-68.45,657.3363389477511
2005,comuna 5,-34.609227689,-58.421745225,706,A872995,A872995 - CITEDEF-INTA,-34.56,-58.51,9.766553367536531
6700,saavedra,-37.724466063,-62.10173503,245,A872825,Tornquist - EEA Bordenave,-38.12,-62.24,45.554378182045795
62056,norquinco,-41.68252462,-70.71325062,281,A872850,P Golondrinas - EEA Bariloche,-42.0,-71.53,76.45319453371376
6308,general guido,-36.6656205,-58.0745242,368,A872833,Las Armas - EEA Cuenca Salado,-37.09,-57.87,50.50228729504667
6189,coronel dorrego,-38.7655502,-61.4127594,469,A872839,Loma Chata - EEA Barrow,-38.65,-61.45,13.229898639150884
6854,25 de mayo,-35.2813845,-60.2618183,413,A872872,25 de Mayo - EEA Pergamino,-35.48,-60.13,25.08067256161616
70063,9 de julio,-31.702191264,-68.368622065,431,A872928,Caucete - EEA San Juan,-31.7,-68.29,7.457205264075556
22014,bermejo,-26.921750385,-58.778745968,377,A872891,Col Popular - EEA Col Benitez,-27.27,-59.14,52.65450575548097
14063,marcos juarez,-32.62947464,-62.309131622,30,NH0502,INTA - Marcos Juarez (EMC),-32.68,-62.12,18.60716194318714
18021,corrientes capital,-27.4064,-58.782760001,44,NH0487,INTA - Colonia Benitez (EMC),-27.42,-58.93,14.638275475088594
6441,la plata,-35.038806067,-58.059306162,267,A872810,Llavallol - ICyA CIRN,-34.79,-58.45,45.12839621759792
58049,huiliches,-39.73103584,-71.07764941,269,A872849,Bariloche - EEA Bariloche,-41.12,-71.25,154.92633251988244
38014,el carmen,-24.426210403,-65.107406616,488,A872925,Hornillos - IPAF NOA,-23.66,-65.43,90.98735101051791
6686,rojas,-34.2433108,-60.532499,237,A872820,Arrecifes - EEA Pergamino,-34.05,-60.14,42.0729075848318
10070,la paz,-28.71805191,-65.296485901,392,A872884,Sumalao - EEA Catamarca,-28.47,-65.73,50.53675461509215
82049,general obligado,-28.6765561,-59.7497004,511,A872963,Villa Ana - EEA Reconquista,-28.44,-59.8,26.67515445215709
86168,salavina,-29.034310364,-63.338746612,364,A872961,Malbran - EEA Quimilí,-29.32,-62.46,91.15413475773315
86035,banda,-27.59548811,-64.41117012,67,NH0550,INTA - La Maria S.Estero (EMC),-28.02,-64.23,50.31613549295171
6427,la matanza,-34.714172889,-58.508904377,267,A872810,Llavallol - ICyA CIRN,-34.79,-58.45,9.992509939535887
18049,esquina,-30.0784368,-59.4055912,417,A872914,Esquina - EEA Bella Vista,-30.04,-59.53,12.730807486981835
82035,garay,-31.1523125,-60.1365521,284,A872874,La Colmena - EEA Paraná,-31.55,-59.72,59.28962168870576
6539,merlo,-34.708542242,-58.679586725,79,A872801,Castelar - ICyA CIRN,-34.61,-58.67,10.966983271490355
86161,robles,-27.84078886,-63.93408912,67,NH0550,INTA - La Maria S.Estero (EMC),-28.02,-64.23,35.25167211213216
10035,belen,-26.94426,-66.73487,393,A872885,Andalgala - EEA Catamarca,-27.61,-66.33,83.95703796754931
6147,carlos casares,-35.83601,-61.43436,475,A872942,Lincoln - EEA Villegas,-34.84,-61.6,111.52534702566037
6410,ituzaingo,-34.644055116,-58.688489333,79,A872801,Castelar - ICyA CIRN,-34.61,-58.67,4.140880965823958
18112,monte caseros,-30.47490444,-57.98344137,249,A872803,S.J. Frontera - EEA Concordia,-30.36,-58.32,34.75502613065877
6490,lomas de zamora,-34.737902715,-58.440675369,267,A872810,Llavallol - ICyA CIRN,-34.79,-58.45,5.842183656533595
6588,9 de julio,-35.6497312,-61.0228986,413,A872872,25 de Mayo - EEA Pergamino,-35.48,-60.13,83.10831710411874
6357,general pueyrredon,-37.807662538,-57.629890858,240,A872819,Miramar - EEA Balcarce,-38.15,-57.99,49.44525287316064
6672,rauch,-36.3845307,-59.0051146,473,A872837,Rauch - EEA Cuenca Salado,-36.8,-59.11,47.05025616548945
66119,molinos,-25.394729614,-66.38092804,507,A872877,Trancas - EEA Famaillá,-26.28,-65.27,148.4011945608801
6134,canuelas,-35.2637758,-58.6725328,267,A872810,Llavallol - ICyA CIRN,-34.79,-58.45,56.34790614621891
18056,general alvear,-29.106201172,-56.559669495,665,A872897,Gob. Virasoro - EEA Mercedes,-28.27,-55.86,115.17138186772135
2015,comuna 15,-34.592944247,-58.488671416,706,A872995,A872995 - CITEDEF-INTA,-34.56,-58.51,4.145605517052658
6056,bahia blanca,-38.683874619,-62.215956312,447,A872840,Medanos - EEA Hilario Ascasubi,-38.87,-62.66,43.77009750767152
2003,comuna 3,-34.609099774,-58.40306252,706,A872995,A872995 - CITEDEF-INTA,-34.56,-58.51,11.221732742791538
50063,lujan de cuyo,-33.32638993,-68.92342084,676,A872941,Tupungato - EEA La Consulta,-33.03,-69.28,46.76043597320136
14112,rio seco,-29.8135599,-63.75524,478,A872829,Dean Funes - EEA Manfredi,-30.34,-64.32,79.81447095284896
82119,san lorenzo,-32.695030212,-60.730968475,66,NH0046,UNR - Zavalla (EMC),-33.02,-60.88,38.645331341676055
26063,martires,-43.690174103,-67.194381714,679,A872856,Paso de Indios - EEA Chubut,-43.86,-69.05,150.57675035756702
22168,25 de mayo,-26.612934657,-59.904048807,445,A872901,P. de la Plaza -EEA Sáenz Peña,-26.93,-59.8,36.623191985885626
34042,pilagas,-24.9895438,-58.6912886,425,A872904,Bme de las Casas -EEA Colorado,-25.45,-59.5,96.14006234696724
90091,simoca,-27.409250259,-65.268943787,68,NH0444,INTA - Famailla (EMC),-27.05,-65.42,42.52659882720044
26014,cushamen,-42.03927359,-71.56551616,281,A872850,P Golondrinas - EEA Bariloche,-42.0,-71.53,5.261420666318589
90014,cruz alta,-27.0201218,-65.0182022,348,A872871,Famailla - EEA Famailla,-27.02,-65.38,35.903816679346036
42035,conhelo,-35.961257935,-64.440666199,53,NH0446,INTA - Anguil (EMC),-36.5,-63.98,72.72420065321705
6644,pinamar,-37.164159375,-56.902791438,368,A872833,Las Armas - EEA Cuenca Salado,-37.09,-57.87,86.34212560506244
66140,rosario de la frontera,-25.89667,-64.7655,507,A872877,Trancas - EEA Famaillá,-26.28,-65.27,65.96183714466952
70084,rivadavia,-31.528684115,-68.598203792,444,A872929,Pocito - EEA San juan,-31.66,-68.59,14.581073057736965
34028,matacos,-23.675008774,-62.312923431,395,A872882,Palma Sola - EEA Yuto,-23.98,-64.3,205.25382280968913
86147,rio hondo,-27.60805727,-64.54365708,67,NH0550,INTA - La Maria S.Estero (EMC),-28.02,-64.23,55.12729090393403
54091,obera,-27.392909097,-55.122770418,58,NH0423,INTA - Cerro Azul (EMC),-27.65,-55.43,41.62756493269924
6336,general lavalle,-36.554420636,-57.077420575,368,A872833,Las Armas - EEA Cuenca Salado,-37.09,-57.87,92.37288388333141
6742,san cayetano,-38.674057696,-59.499359487,241,A872808,La Dulce - EEA Balcarce,-38.34,-59.01,56.54215006830968
6301,general belgrano,-35.834410002,-58.477360025,472,A872806,Chascomus - EEA Cuenca Salado,-35.74,-58.05,40.030464745688434
30049,gualeguay,-33.558718237,-59.480520131,231,A872835,Rio Tala - EEA San Pedro,-33.77,-59.63,27.22835425729704
90007,burruyacu,-26.36994,-64.78136,507,A872877,Trancas - EEA Famaillá,-26.28,-65.27,49.79336304677647
10098,santa rosa,-28.045031938,-65.278456151,392,A872884,Sumalao - EEA Catamarca,-28.47,-65.73,64.6631167403539
38098,tumbaya,-23.832056045,-65.475578308,488,A872925,Hornillos - IPAF NOA,-23.66,-65.43,19.614355192029702
6238,dolores,-36.3899064,-57.6947905,472,A872806,Chascomus - EEA Cuenca Salado,-35.74,-58.05,78.89492423640094
42070,guatrache,-37.57537932,-63.54911308,518,A872817,Bordenave - EEA Bordenave,-37.75,-63.08,45.70413108027349
86105,loreto,-28.476353257,-64.045073961,67,NH0550,INTA - La Maria S.Estero (EMC),-28.02,-64.23,53.73207202837586
30113,villaguay,-31.77167964,-59.570914493,284,A872874,La Colmena - EEA Paraná,-31.55,-59.72,28.356545635264517
62042,general roca,-39.13837603,-66.909520748,268,A872846,Gral. Roca - EEA Alto Valle,-39.03,-67.74,72.85614414683828
6420,la costa,-36.488397629,-56.700435258,368,A872833,Las Armas - EEA Cuenca Salado,-37.09,-57.87,123.91275709041479
66049,general guemes,-24.75876236,-64.993942261,395,A872882,Palma Sola - EEA Yuto,-23.98,-64.3,111.3441672853104
14119,rio segundo,-31.597730006,-63.245539405,372,A872907,Manfredi - EEA Manfredi,-31.86,-63.75,55.957847610362485
62084,valcheta,-41.214345515,-66.338309668,674,A872972,Gral. Conesa - EEA Valle Inf.,-40.21,-64.19,213.04647908473356
6525,marcos paz,-34.776242,-58.9395696,79,A872801,Castelar - ICyA CIRN,-34.61,-58.67,30.825308035865078
14014,cordoba capital,-31.478788376,-64.145095825,372,A872907,Manfredi - EEA Manfredi,-31.86,-63.75,56.48413651415092
42112,puelen,-37.95782503,-67.82531198,519,A872947,Plottier - IPAF Patagonia,-38.95,-68.33,118.61954557894862
38021,doctor manuel belgrano,-24.029388428,-65.647422791,488,A872925,Hornillos - IPAF NOA,-23.66,-65.43,46.523037894743574
90049,la cocha,-27.756055832,-65.599121094,393,A872885,Andalgala - EEA Catamarca,-27.61,-66.33,73.89403798511388
10014,ancasti,-28.926935319,-65.520772291,392,A872884,Sumalao - EEA Catamarca,-28.47,-65.73,54.61401421661654
66077,la caldera,-24.57701543,-65.368728969,488,A872925,Hornillos - IPAF NOA,-23.66,-65.43,101.759385681027
6812,tordillo,-36.4708183,-57.1914178,368,A872833,Las Armas - EEA Cuenca Salado,-37.09,-57.87,91.60057023077175
46042,chilecito,-29.10233846,-67.60548106,379,A872888,P de Los Llanos - EEA La Rioja,-30.15,-66.55,154.7064375157551
6224,chivilcoy,-34.9440654,-60.1765372,413,A872872,25 de Mayo - EEA Pergamino,-35.48,-60.13,59.60976817564391
26070,paso de indios,-44.465560913,-68.474082947,679,A872856,Paso de Indios - EEA Chubut,-43.86,-69.05,81.54458717521018
46014,la rioja capital,-29.725196838,-66.606086731,379,A872888,P de Los Llanos - EEA La Rioja,-30.15,-66.55,47.40033762997921
6035,avellaneda,-34.675005648,-58.310563425,267,A872810,Llavallol - ICyA CIRN,-34.79,-58.45,18.05043445350463
66028,salta capital,-24.704942034,-65.470510545,488,A872925,Hornillos - IPAF NOA,-23.66,-65.43,115.8118704638895
62049,9 de julio,-41.250133514,-66.896430969,667,A872898,Ing. Jacobacci - EEA Bariloche,-41.33,-69.55,222.44507942946558
14035,general roca,-34.8188719,-63.3857113,35,NH0038,INTA - Gral Villegas (EMC),-34.92,-62.73,60.99414290038492
54042,eldorado,-26.15509937,-54.58240989,409,A872911,Montecarlo - EEA Montecarlo,-26.57,-54.73,48.27089952610036
6294,general arenales,-34.3397918,-61.3746941,238,A872815,Ferre - EEA Pergamino,-34.1,-61.14,34.28129279667519
70091,san martin,-31.492270107,-68.300502855,431,A872928,Caucete - EEA San Juan,-31.7,-68.29,23.054600131110284
18175,sauce,-29.988078116,-58.535707658,436,A872920,Curuzu Cuatia - EEA Mercedes,-29.87,-58.11,43.13782434857441
70042,chimbas,-31.495614115,-68.563706793,444,A872929,Pocito - EEA San juan,-31.66,-68.59,18.397101816909593
42021,la pampa capital,-36.68302536,-64.193794251,233,A872823,Anguil -EEA Anguil,-36.54,-63.99,24.172502831504215
30105,victoria,-32.957337,-60.049086,695,A872948,Villa Ramallo - EEA San Pedro,-33.52,-60.11,62.66193696905013
42147,trenel,-35.741376357,-64.447959893,53,NH0446,INTA - Anguil (EMC),-36.5,-63.98,94.13105076393587
42056,chapaleufu,-35.02186343,-63.818977368,234,A872822,Huinca Renanco - EEA Anguil,-34.77,-64.37,57.59673327228953
38056,san antonio,-24.373626709,-65.604064941,488,A872925,Hornillos - IPAF NOA,-23.66,-65.43,80.99975331949814
2000,ciudad de buenos aires,-34.613291729,-58.388751736,706,A872995,A872995 - CITEDEF-INTA,-34.56,-58.51,12.597251694295615
82133,vera,-29.725727982,-60.289512873,296,A872867,Calchaqui - EEA Reconquista,-29.88,-60.24,17.758213362612086
22036,12 de octubre,-27.34587947,-61.4341435,45,NH0416,INTA - Las Breñas (EMC),-27.1,-61.1,42.870591217630924
58070,los lagos,-40.727523804,-71.677230835,269,A872849,Bariloche - EEA Bariloche,-41.12,-71.25,56.52169234450135
66063,guachipas,-25.77241,-65.34234,507,A872877,Trancas - EEA Famaillá,-26.28,-65.27,56.69933641280226
50021,godoy cruz,-32.921528315,-68.854923183,454,A872938,Junín - EEA Junin Mendoza,-33.12,-68.48,41.371139942092505
46063,general belgrano,-30.557228088,-66.160728455,380,A872889,Catuna - EEA La Rioja,-30.96,-66.17,44.66226242046813
58091,pehuenches,-36.925289154,-69.985023498,434,A872935,Malargüe - EEA Rama Caida,-35.38,-69.57,175.48778405443286
14147,santa maria,-31.55910043,-64.19196866,372,A872907,Manfredi - EEA Manfredi,-31.86,-63.75,53.55633302218811
26049,gastre,-42.841125488,-68.456611633,679,A872856,Paso de Indios - EEA Chubut,-43.86,-69.05,122.99487850300467
90070,monteros,-27.138624191,-65.443618774,68,NH0444,INTA - Famailla (EMC),-27.05,-65.42,10.09549104918602
50126,tupungato,-33.300084738,-69.17169565,676,A872941,Tupungato - EEA La Consulta,-33.03,-69.28,31.612117153168068
6749,san fernando,-34.2256455,-58.5931568,662,A872802,San Fernando - EEA Delta,-34.25,-58.61,3.1154836382188824
54007,apostoles,-28.066221237,-55.598537445,665,A872897,Gob. Virasoro - EEA Mercedes,-28.27,-55.86,34.195836953274984
6515,malvinas argentinas,-34.454455058,-58.706241741,79,A872801,Castelar - ICyA CIRN,-34.61,-58.67,17.57276689458451
6203,coronel suarez,-37.6402741,-62.0066225,244,A872816,Coronel Suarez - EEA C. Naredo,-37.29,-62.04,38.98763186194602
22039,2 de abril,-27.597486358,-61.131970665,502,A872958,Du Graty - EEA Sáenz Peña,-27.7,-60.91,24.67439298844299
34014,formosa,-25.738264083,-57.920059208,424,A872905,El Colorado - EEA El Colorado,-26.33,-59.35,157.41949722911122
6476,loberia,-37.7714343,-58.6447231,242,A872824,Balcarce - EEA Balcarce,-37.76,-58.3,30.40043399508459
30084,parana,-31.885412846,-60.234448335,50,NH0114,INTA - Parana (EMC),-31.85,-60.54,29.17932801753287
54098,san ignacio,-27.251232072,-55.530492495,386,A872909,V Miguel Lanus -EEA Cerro Azul,-27.43,-55.89,40.71804082700483
2013,comuna 13,-34.554881524,-58.450289095,706,A872995,A872995 - CITEDEF-INTA,-34.56,-58.51,5.509421635082704
6434,lanus,-34.69095715,-58.383862849,267,A872810,Llavallol - ICyA CIRN,-34.79,-58.45,12.546100068431315
38042,palpala,-24.18229866,-65.207740784,488,A872925,Hornillos - IPAF NOA,-23.66,-65.43,62.1167485081345
6042,ayacucho,-37.2159908,-58.6862018,473,A872837,Rauch - EEA Cuenca Salado,-36.8,-59.11,59.61528380032931
86049,santiago del estero capital,-27.80983349,-64.48893926,67,NH0550,INTA - La Maria S.Estero (EMC),-28.02,-64.23,34.52767420355647
6721,salliquelo,-36.568990828,-63.087622957,678,A872926,Casbas - EEA C. Naredo,-36.86,-62.45,65.48397978863864
46049,famatina,-28.9015462,-67.5409052,379,A872888,P de Los Llanos - EEA La Rioja,-30.15,-66.55,168.4546342844803
6287,general alvear,-36.0095752,-60.2101369,413,A872872,25 de Mayo - EEA Pergamino,-35.48,-60.13,59.20404607206088
74028,chacabuco,-32.563397622,-65.031530745,461,A872931,Tilisarao - EEA San Luis,-32.67,-65.23,22.06212339794125
54112,san pedro,-26.508554673,-53.92302828,404,A872913,B de Irigoyen - EEA Montecarlo,-26.28,-53.67,35.75837271072905
54084,montecarlo,-26.754643617,-54.699244772,409,A872911,Montecarlo - EEA Montecarlo,-26.57,-54.73,20.686014680635964
30088,san salvador,-31.593985089,-58.371160151,686,A872831,San Salvador - EEA Concordia,-31.65,-58.5,13.711527969337116
6875,villarino,-39.4323988,-62.9350751,36,NH0421,INTA - Hilario Ascasubi (EMC),-39.38,-62.62,27.75361604970291
6175,colon,-33.970424262,-61.076205346,238,A872815,Ferre - EEA Pergamino,-34.1,-61.14,15.533436664330834
18084,ituzaingo,-27.715914491,-56.94751639,672,A872971,Ituzaingo - EEA Corrientes,-27.54,-56.58,41.17925962176369
6532,mercedes,-34.645015717,-59.359275818,79,A872801,Castelar - ICyA CIRN,-34.61,-58.67,63.32566367822079
22161,tapenaga,-27.778495788,-59.604564666,383,A872893,Basail - EEA Col Benitez,-27.9,-59.3,32.884811064984305
14084,presidente roque saenz pena,-33.904690547,-63.83804658,275,A872861,Viamonte - ICyA CIRN,-33.83,-63.02,76.14416016724455
50112,santa rosa,-33.0552929,-68.066892376,456,A872937,Santa Rosa - EEA Junin Mendoza,-33.18,-67.87,22.999138837776123
54035,concepcion,-27.88963381,-55.42634391,382,A872908,Cerro Azul - EEA Cerro Azul,-27.66,-55.44,25.48263515484538
70126,25 de mayo,-31.73063248,-68.34501277,431,A872928,Caucete - EEA San Juan,-31.7,-68.29,6.223021640832954
6112,bragado,-35.2410531,-60.3474272,413,A872872,25 de Mayo - EEA Pergamino,-35.48,-60.13,33.06515748740059
38084,susques,-23.114919663,-66.250076294,52,NH0457,INTA - Abra Pampa (EMC),-22.83,-65.85,51.75568467924389
46126,sanagasta,-29.160524552,-67.091955631,379,A872888,P de Los Llanos - EEA La Rioja,-30.15,-66.55,121.58448928987559
30042,feliciano,-30.429341534,-58.76618814,249,A872803,S.J. Frontera - EEA Concordia,-30.36,-58.32,43.56322723456262
6805,tigre,-34.3277116,-58.608687,662,A872802,San Fernando - EEA Delta,-34.25,-58.61,8.621209996661046
78049,rio chico,-47.454299927,-71.845031738,717,A872966,Los Antiguos - EEA Santa Cruz,-46.55,-71.64,101.73384046457161
66161,santa victoria,-22.17502,-64.93502,494,A872924,Sta Victoria O -EEA Abra Pampa,-22.25,-64.96,8.69309348692217
82042,general lopez,-34.174710725,-62.050326774,716,A872870,Hughes - EEA Oliveros,-33.85,-61.33,75.66032543030278
94028,antartida argentina,-64.155802312,-60.955074053,339,A872859,San Sebastian - EEA Santa Cruz,-52.89,-68.45,1326.5008489911982
66014,cachi,-25.020489232,-66.097021202,507,A872877,Trancas - EEA Famaillá,-26.28,-65.27,162.37254448989117
6609,pehuajo,-35.6179927,-62.0046671,367,A872906,Trenque Lauquen - EEA Villegas,-35.97,-62.77,79.4471547597036
50042,la paz,-33.558452606,-67.252449036,456,A872937,Santa Rosa - EEA Junin Mendoza,-33.18,-67.87,71.16664219853712
38105,valle grande,-23.56311433,-64.89713769,488,A872925,Hornillos - IPAF NOA,-23.66,-65.43,55.42967836337269
38094,tilcara,-23.77525242,-65.29804781,488,A872925,Hornillos - IPAF NOA,-23.66,-65.43,18.546903385001066
22021,comandante fernandez,-26.9538276,-60.51530921,46,NH0415,INTA - Roque Saenz Peña (EMC),-26.87,-60.45,11.32948191243594
6364,general rodriguez,-34.721174062,-59.011601578,79,A872801,Castelar - ICyA CIRN,-34.61,-58.67,33.65190595204207
46112,rosario vera penaloza,-31.38359642,-66.626953125,378,A872887,El Portezuelo - EEA La Rioja,-30.84,-66.7,60.6707644761151
78028,lago argentino,-50.27098465,-71.892753601,703,A872967,El Calafate - EEA Rio Gallegos,-50.31,-72.32,30.75448560881166
42091,limay mahuida,-37.552004942,-66.226853897,268,A872846,Gral. Roca - EEA Alto Valle,-39.03,-67.74,210.79886432660928
6412,jose c paz,-34.480495795,-58.804258898,79,A872801,Castelar - ICyA CIRN,-34.61,-58.67,18.927763124933485
6833,tres arroyos,-38.2667152,-60.4002814,33,NH0216,INTA - Barrow (EMC),-38.32,-60.25,14.416067669467246
66098,la vina,-25.623203278,-65.613235474,507,A872877,Trancas - EEA Famaillá,-26.28,-65.27,80.4768804981996
70112,ullum,-31.4627522,-68.73605428,444,A872929,Pocito - EEA San juan,-31.66,-68.59,25.896013679298488
el,independencia,-26.524236939,-60.571935257,46,NH0415,INTA - Roque Saenz Peña (EMC),-26.87,-60.45,40.18608263600669
66147,rosario de lerma,-24.141889572,-66.019447327,488,A872925,Hornillos - IPAF NOA,-23.66,-65.43,80.32039459011676
14168,totoral,-30.81785967,-64.211850181,478,A872829,Dean Funes - EEA Manfredi,-30.34,-64.32,53.9827417763404
6798,tapalque,-36.475682,-60.1222218,473,A872837,Rauch - EEA Cuenca Salado,-36.8,-59.11,97.41623282886572
6861,vicente lopez,-34.525914969,-58.535763943,706,A872995,A872995 - CITEDEF-INTA,-34.56,-58.51,4.4598094758711175
82112,san justo,-30.8130411,-60.3886502,284,A872874,La Colmena - EEA Paraná,-31.55,-59.72,103.62743871509073
10112,valle viejo,-28.560608532,-65.780337085,392,A872884,Sumalao - EEA Catamarca,-28.47,-65.73,11.18574431581401
18007,bella vista,-28.489517068,-59.034120641,491,A872951,Bella Vista - EEA Bella Vista,-28.45,-58.99,6.152240535255092
6277,florentino ameghino,-34.816707094,-62.449682981,35,NH0038,INTA - Gral Villegas (EMC),-34.92,-62.73,28.075531836554593
14056,juarez celman,-33.3160107,-63.2538219,275,A872861,Viamonte - ICyA CIRN,-33.83,-63.02,61.0024485279264
66091,la poma,-23.78698349,-66.067832947,488,A872925,Hornillos - IPAF NOA,-23.66,-65.43,66.54170212197818
6568,moron,-34.664413103,-58.645642712,79,A872801,Castelar - ICyA CIRN,-34.61,-58.67,6.436153603080558
26021,escalante,-45.89050293,-68.068969727,282,A872857,Sarmiento - EEA Chubut,-45.6,-69.03,81.45727280736104
58007,alumine,-39.30917583,-70.92970664,269,A872849,Bariloche - EEA Bariloche,-41.12,-71.25,202.91137843562169
62014,avellaneda,-39.60125657,-65.49681844,674,A872972,Gral. Conesa - EEA Valle Inf.,-40.21,-64.19,130.59649984434856
74035,general pedernera,-33.7828408,-65.72200942,420,A872930,Villa Mercedes - EEA San Luis,-33.66,-65.41,31.967703485472047
46070,general juan f quiroga,-30.755954238,-66.668261739,378,A872887,El Portezuelo - EEA La Rioja,-30.84,-66.7,9.800417686742055
6847,tres lomas,-36.499723,-62.6930571,678,A872926,Casbas - EEA C. Naredo,-36.86,-62.45,45.50194101351552
54077,libertador general san martin,-26.785012551,-54.901151033,409,A872911,Montecarlo - EEA Montecarlo,-26.57,-54.73,29.287454371894682
58063,loncopue,-38.143833175,-70.528734,519,A872947,Plottier - IPAF Patagonia,-38.95,-68.33,211.53035604081333
38007,cochinoca,-22.84146227,-66.079278568,52,NH0457,INTA - Abra Pampa (EMC),-22.83,-65.85,23.568772400387306
18035,curuzu cuatia,-29.309599765,-58.51285545,440,A872915,Mercedes - EEA Mercedes,-29.2,-58.04,47.539358162993466
86140,quebrachos,-29.79049,-63.18682,364,A872961,Malbran - EEA Quimilí,-29.32,-62.46,87.64314684938414
82091,san cristobal,-29.887499217,-61.571827677,293,A872864,Ceres - EEA Rafaela,-29.87,-61.96,37.54887076034274
86042,belgrano,-28.89628,-62.62596,251,A872811,Bandera - EEA EEA Quimilí,-28.89,-62.27,34.72692991119536
74021,coronel pringles,-33.120748488,-65.966843949,420,A872930,Villa Mercedes - EEA San Luis,-33.66,-65.41,79.12775692207035
86133,pellegrini,-26.283187866,-64.456840515,507,A872877,Trancas - EEA Famaillá,-26.28,-65.27,81.21722917498437
50007,mendoza capital,-32.877493847,-68.852787068,676,A872941,Tupungato - EEA La Consulta,-33.03,-69.28,43.37838100582432
6371,general san martin,-34.567343377,-58.584311246,706,A872995,A872995 - CITEDEF-INTA,-34.56,-58.51,6.86803264840879
42119,quemu quemu,-36.208427429,-63.702777862,53,NH0446,INTA - Anguil (EMC),-36.5,-63.98,40.81642363932127
30056,gualeguaychu,-33.154505087,-58.988901125,694,A872804,Villa Paranacito-EEA C. del Ur,-33.71,-58.65,69.20388177233295
14091,punilla,-31.105800629,-64.591285706,478,A872829,Dean Funes - EEA Manfredi,-30.34,-64.32,88.7872779649616
18091,lavalle,-28.9356733,-58.8052348,696,A872918,Pje. Desmochado - EEA B Vista,-28.8,-59.0,24.23188165967948
66035,cerrillos,-24.95319832,-65.42243492,488,A872925,Hornillos - IPAF NOA,-23.66,-65.43,143.2401954941321
6648,presidente peron,-34.9075871,-58.4348955,267,A872810,Llavallol - ICyA CIRN,-34.79,-58.45,13.1177930471297
6021,alberti,-35.237293243,-60.303031921,413,A872872,25 de Mayo - EEA Pergamino,-35.48,-60.13,31.183648553782692
22028,chacabuco,-27.376891185,-60.858685319,502,A872958,Du Graty - EEA Sáenz Peña,-27.7,-60.91,36.16135528384094
58056,lacar,-40.200557709,-71.060089111,269,A872849,Bariloche - EEA Bariloche,-41.12,-71.25,103.35689116488403
26028,florentino ameghino,-44.338169098,-65.236175537,350,A872855,Puerto Piramides - EEA Chubut,-42.54,-64.29,213.95654113185904
14175,tulumba,-29.982391401,-64.490007826,478,A872829,Dean Funes - EEA Manfredi,-30.34,-64.32,42.89228118336
46056,general angel vera penaloza,-30.515722275,-66.864128113,378,A872887,El Portezuelo - EEA La Rioja,-30.84,-66.7,39.24031707151701
66133,rivadavia,-22.49881,-62.40759,395,A872882,Palma Sola - EEA Yuto,-23.98,-64.3,253.797303204058
42049,chalileo,-36.63620803,-66.47691656,233,A872823,Anguil -EEA Anguil,-36.54,-63.99,222.8025688941958
6105,bolivar,-36.002259,-60.623087,413,A872872,25 de Mayo - EEA Pergamino,-35.48,-60.13,73.12495098552206
10084,poman,-28.33781745,-66.54987231,392,A872884,Sumalao - EEA Catamarca,-28.47,-65.73,81.66592243250552
18168,santo tome,-28.518781665,-56.055442891,665,A872897,Gob. Virasoro - EEA Mercedes,-28.27,-55.86,33.5715131032928
10105,tinogasta,-27.092108466,-67.818961519,393,A872885,Andalgala - EEA Catamarca,-27.61,-66.33,158.1057119532017
70119,valle fertil,-30.804157736,-67.366234996,378,A872887,El Portezuelo - EEA La Rioja,-30.84,-66.7,63.869747998098894
58014,anelo,-37.888034232,-68.514489997,519,A872947,Plottier - IPAF Patagonia,-38.95,-68.33,118.97873777276409
74049,junin,-32.31398017,-65.41102538,461,A872931,Tilisarao - EEA San Luis,-32.67,-65.23,42.99082821773427
86112,mitre,-29.291571662,-63.034503114,364,A872961,Malbran - EEA Quimilí,-29.32,-62.46,55.90222492005027
6840,tres de febrero,-34.608872951,-58.563664457,706,A872995,A872995 - CITEDEF-INTA,-34.56,-58.51,7.323626818528156
6735,san antonio de areco,-34.2881384,-59.5070413,230,A872834,Lima - EEA San Pedro,-33.97,-59.31,39.695201073160455
82007,belgrano,-32.7494032,-61.5381149,297,A872868,Las Rosas - EEA Oliveros,-32.49,-61.57,28.92244711157576
14140,san justo,-31.234003736,-62.740666131,64,NH0098,INTA - Rafaela (EMC),-31.18,-61.55,113.62462489241541
90112,trancas,-26.385499954,-65.363098145,507,A872877,Trancas - EEA Famaillá,-26.28,-65.27,14.93351989443064
22043,fray justo santa maria de oro,-27.867498663,-61.325403043,376,A872900,Santa Sylvina - EEA Sáenz Peña,-27.85,-61.13,19.342658304887347
70014,angaco,-31.45675103,-68.34171324,431,A872928,Caucete - EEA San Juan,-31.7,-68.29,27.414371847936547
10042,capayan,-29.025346811,-66.003835459,392,A872884,Sumalao - EEA Catamarca,-28.47,-65.73,67.11020388783616
6126,campana,-34.059934,-58.836065,662,A872802,San Fernando - EEA Delta,-34.25,-58.61,29.64948916666184
38063,san pedro,-24.408639908,-64.621589661,395,A872882,Palma Sola - EEA Yuto,-23.98,-64.3,57.632836913967864
30035,federal,-30.971937142,-58.993275987,248,A872805,Federal - EEA Concordia,-30.93,-58.77,21.83546833778473
78014,deseado,-47.887138367,-66.951148987,720,A872965,Jaramillo - EEA Santa Cruz,-47.2,-66.93,76.41361795933635
86056,copo,-25.72948778,-63.46601397,496,A872954,Monte Quemado - EEA Quimilí,-25.86,-62.71,77.18760883815699
6399,guamini,-36.894233704,-62.356311798,678,A872926,Casbas - EEA C. Naredo,-36.86,-62.45,9.176135521558093
82063,la capital,-31.188581467,-60.626773834,50,NH0114,INTA - Parana (EMC),-31.85,-60.54,73.79873167159992
66084,la candelaria,-26.14426,-65.0142,507,A872877,Trancas - EEA Famaillá,-26.28,-65.27,29.659399441921323
14070,minas,-30.849700273,-65.365090379,380,A872889,Catuna - EEA La Rioja,-30.96,-66.17,77.91396781984308
58084,norquin,-37.357940674,-70.870056152,434,A872935,Malargüe - EEA Rama Caida,-35.38,-69.57,248.55822335685426
38077,santa catalina,-22.051202774,-65.841766357,516,A872923,Abra Pampa - EEA Abra Pampa,-22.8,-65.83,82.9277107841421
70105,sarmiento,-32.02091413,-68.39270346,431,A872928,Caucete - EEA San Juan,-31.7,-68.29,36.88785443806456
38028,humahuaca,-22.96907829,-65.43667552,516,A872923,Abra Pampa - EEA Abra Pampa,-22.8,-65.83,44.4907444597912
6014,adolfo gonzales chaves,-37.854450226,-59.95879364,33,NH0216,INTA - Barrow (EMC),-38.32,-60.25,57.645141843596626
10028,antofagasta de la sierra,-25.246114731,-67.520767212,507,A872877,Trancas - EEA Famaillá,-26.28,-65.27,253.1746073004074
62021,bariloche,-41.898146079,-71.503164693,281,A872850,P Golondrinas - EEA Bariloche,-42.0,-71.53,11.529891103803406
66007,anta,-24.250011444,-64.140953064,395,A872882,Palma Sola - EEA Yuto,-23.98,-64.3,33.997459567530626
22154,sargento cabral,-26.599502096,-59.748676426,445,A872901,P. de la Plaza -EEA Sáenz Peña,-26.93,-59.8,36.97319231365641
6154,carlos tejedor,-35.263763428,-62.677410126,35,NH0038,INTA - Gral Villegas (EMC),-34.92,-62.73,38.43819746348592
18140,san luis del palmar,-27.41325145,-58.37888858,492,A872952,Herlitzka - EEA Corrientes,-27.66,-58.29,28.717905096153903
6518,mar chiquita,-37.4842367,-57.4365959,368,A872833,Las Armas - EEA Cuenca Salado,-37.09,-57.87,58.23584314559798
74063,libertador general san martin,-32.771430969,-65.766944885,461,A872931,Tilisarao - EEA San Luis,-32.67,-65.23,51.5781983882359
30015,concordia,-31.352304459,-58.05355072,49,NH0496,INTA - Concordia (EMC),-31.38,-58.03,3.801273327930055
46007,arauco,-28.39283371,-66.568237305,392,A872884,Sumalao - EEA Catamarca,-28.47,-65.73,82.56381594328744
70098,santa lucia,-31.509735114,-68.502685795,444,A872929,Pocito - EEA San juan,-31.66,-68.59,18.608668053181567
6728,san andres de giles,-34.387887,-59.4326743,230,A872834,Lima - EEA San Pedro,-33.97,-59.31,47.714041914416924
86007,aguirre,-28.968503224,-62.900291325,364,A872961,Malbran - EEA Quimilí,-29.32,-62.46,57.907084012063535
14182,union,-33.4792553,-62.9564065,275,A872861,Viamonte - ICyA CIRN,-33.83,-63.02,39.34791356457939
2011,comuna 11,-34.6042463,-58.490676432,706,A872995,A872995 - CITEDEF-INTA,-34.56,-58.51,5.218755932153087
30098,uruguay,-32.380954743,-58.236881266,272,A872830,Concepción - EEA Conc. Uruguay,-32.49,-58.35,16.10584772720407
42105,maraco,-35.48140196,-63.49637054,367,A872906,Trenque Lauquen - EEA Villegas,-35.97,-62.77,85.19233716894189
34056,pirane,-25.5645932,-59.10290413,425,A872904,Bme de las Casas -EEA Colorado,-25.45,-59.5,41.890519600699605
34007,bermejo,-23.755783081,-61.170639038,713,A872899,J J Castelli - EEA Sáenz Peña,-25.96,-60.56,251.84025313287796
2002,comuna 2,-34.585876008,-58.39499618,706,A872995,A872995 - CITEDEF-INTA,-34.56,-58.51,10.93618262070192
42077,hucal,-37.722442627,-64.064544678,518,A872817,Bordenave - EEA Bordenave,-37.75,-63.08,86.8372869182075
6217,chascomus,-35.4916042,-57.8945611,472,A872806,Chascomus - EEA Cuenca Salado,-35.74,-58.05,30.949503164894754
90084,tucuman capital,-26.82900979,-65.210544181,348,A872871,Famailla - EEA Famailla,-27.02,-65.38,27.03892560697585
50035,junin,-33.150900314,-68.408806286,454,A872938,Junín - EEA Junin Mendoza,-33.12,-68.48,7.474988285277346
18077,itati,-27.351966147,-57.873936254,427,A872921,Caa Cati - EEA Corrientes,-27.75,-57.62,50.73905946726011
70070,pocito,-31.72999788,-68.56591515,444,A872929,Pocito - EEA San juan,-31.66,-68.59,8.090371271373318
22126,1 de mayo,-27.228550345,-58.904050775,44,NH0487,INTA - Colonia Benitez (EMC),-27.42,-58.93,21.369159026706395
78021,guer aike,-51.8701101,-70.5994988,722,A872968,Güer Aike - EEA Santa Cruz,-51.61,-69.66,71.0558765803058
6260,esteban echeverria,-34.884979135,-58.477809937,267,A872810,Llavallol - ICyA CIRN,-34.79,-58.45,10.839455841023774
2009,comuna 9,-34.643796083,-58.519129896,706,A872995,A872995 - CITEDEF-INTA,-34.56,-58.51,9.333424353293095
54070,leandro n alem,-27.551394441,-55.540137661,58,NH0423,INTA - Cerro Azul (EMC),-27.65,-55.43,15.414830419090197
62070,pilcaniyeu,-41.32152141,-70.27466678,667,A872898,Ing. Jacobacci - EEA Bariloche,-41.33,-69.55,60.67592911331924
6658,quilmes,-34.700378406,-58.276642782,267,A872810,Llavallol - ICyA CIRN,-34.79,-58.45,18.73082190253043
6784,suipacha,-34.7224296,-59.7512909,237,A872820,Arrecifes - EEA Pergamino,-34.05,-60.14,82.71542398737432
6547,monte,-35.5785579,-58.9391774,472,A872806,Chascomus - EEA Cuenca Salado,-35.74,-58.05,82.48307632178812
54119,25 de mayo,-27.548253705,-54.761065477,58,NH0423,INTA - Cerro Azul (EMC),-27.65,-55.43,66.99499155456859
6791,tandil,-37.350270395,-59.078732973,473,A872837,Rauch - EEA Cuenca Salado,-36.8,-59.11,61.131747667642344
58105,picunches,-38.34971979,-69.939951421,519,A872947,Plottier - IPAF Patagonia,-38.95,-68.33,155.1809763978476
54014,cainguas,-27.117297152,-54.697852783,412,A872910,San Vicente - EEA Cerro Azul,-26.92,-54.42,35.188386475455744
6168,castelli,-36.1352289,-57.7158097,472,A872806,Chascomus - EEA Cuenca Salado,-35.74,-58.05,53.221215845158234
6665,ramallo,-33.6241496,-60.0461017,695,A872948,Villa Ramallo - EEA San Pedro,-33.52,-60.11,12.986098078302886
10021,andalgala,-27.619059558,-66.115185422,393,A872885,Andalgala - EEA Catamarca,-27.61,-66.33,21.228023665073582
42014,caleu caleu,-38.40961523,-63.4727511,518,A872817,Bordenave - EEA Bordenave,-37.75,-63.08,80.91942104462807
54021,candelaria,-27.370332718,-55.535385132,58,NH0423,INTA - Cerro Azul (EMC),-27.65,-55.43,32.69282340730345
74007,ayacucho,-32.136513149,-66.854453888,431,A872928,Caucete - EEA San Juan,-31.7,-68.29,144.1378861853637
70028,san juan capital,-31.537197038,-68.525018317,444,A872929,Pocito - EEA San juan,-31.66,-68.59,14.947789656486302
66042,chicoana,-25.15339187,-65.69363231,507,A872877,Trancas - EEA Famaillá,-26.28,-65.27,131.85163873818084
54056,guarani,-27.230711492,-54.178775578,412,A872910,San Vicente - EEA Cerro Azul,-26.92,-54.42,41.926042117623524
82028,constitucion,-33.3790173,-61.3544315,716,A872870,Hughes - EEA Oliveros,-33.85,-61.33,52.28843248880383
86070,figueroa,-26.914608594,-63.529854431,719,A872813,Vaca Huañuna - EEA Santiago,-27.47,-63.47,61.82611673117639
6063,balcarce,-37.5739424,-58.6177189,32,NH0400,INTA - Balcarce (EMC),-37.75,-58.3,34.17190851843257
14154,sobremonte,-29.616354941,-64.062436384,478,A872829,Dean Funes - EEA Manfredi,-30.34,-64.32,83.9803582372209
50119,tunuyan,-33.4855528,-69.18303881,56,NH0442,INTA - La Consulta (EMC),-33.73,-69.12,27.73696525288227
22007,almirante brown,-25.534456253,-62.852661133,496,A872954,Monte Quemado - EEA Quimilí,-25.86,-62.71,38.80353472931825
6408,hurlingham,-34.593093136,-58.635720951,79,A872801,Castelar - ICyA CIRN,-34.61,-58.67,3.6612374084375583
30070,la paz,-30.60360412,-59.52751986,417,A872914,Esquina - EEA Bella Vista,-30.04,-59.53,62.48041772424758
22133,quitilipi,-26.99698694,-60.33777397,46,NH0415,INTA - Roque Saenz Peña (EMC),-26.87,-60.45,17.94995094379005
74056,juan martin de pueyrredon,-33.368777964,-66.40741813,420,A872930,Villa Mercedes - EEA San Luis,-33.66,-65.41,98.13480711839435
90105,tafi viejo,-26.741963216,-65.563156447,348,A872871,Famailla - EEA Famailla,-27.02,-65.38,35.78048577150587
86063,choya,-28.599575043,-64.665016174,67,NH0550,INTA - La Maria S.Estero (EMC),-28.02,-64.23,77.11025361321222
22112,o higgins,-27.282306249,-60.802376761,723,A872896,Las Breñas - EEA Las Breñas,-27.07,-61.06,34.7162696940904
26042,gaiman,-43.33395568,-65.47259113,350,A872855,Puerto Piramides - EEA Chubut,-42.54,-64.29,130.7537129696075
6140,capitan sarmiento,-34.1731879,-59.9792421,237,A872820,Arrecifes - EEA Pergamino,-34.05,-60.14,20.167095816097937
42133,realico,-35.01791303,-64.035117862,234,A872822,Huinca Renanco - EEA Anguil,-34.77,-64.37,41.15094220934888
74014,belgrano,-32.52213375,-66.48595015,461,A872931,Tilisarao - EEA San Luis,-32.67,-65.23,119.03857523170312
62077,san antonio,-40.778587341,-65.050743103,674,A872972,Gral. Conesa - EEA Valle Inf.,-40.21,-64.19,96.49250432269962
26035,futaleufu,-43.48395319,-71.59418478,690,A872852,Trevelin - EEA Esquel,-43.12,-71.55,40.59332611774213
86021,atamisqui,-28.82072,-63.74698,67,NH0550,INTA - La Maria S.Estero (EMC),-28.02,-64.23,100.57099942575532
22091,maipu,-26.164279026,-60.55151954,713,A872899,J J Castelli - EEA Sáenz Peña,-25.96,-60.56,22.64776174505024
58021,catan lil,-39.314510533,-70.154038951,519,A872947,Plottier - IPAF Patagonia,-38.95,-68.33,162.82089101371673
6714,salto,-34.1554316,-60.4724629,237,A872820,Arrecifes - EEA Pergamino,-34.05,-60.14,32.83105886048508
54049,general manuel belgrano,-25.79129267,-53.88429149,403,A872912,Andresito - EEA Montecarlo,-25.62,-54.07,26.59902755263304
18070,goya,-29.175124402,-58.889820541,408,A872950,Goya - EEA Bella Vista,-29.18,-59.09,19.479334667900684
6351,general pinto,-34.8011277,-61.8636453,475,A872942,Lincoln - EEA Villegas,-34.84,-61.6,24.502579655675643
78007,corpen aike,-50.203589682,-69.91434697,303,A872860,Esperanza - EEA Santa Cruz,-51.1,-70.5,107.97679561912702
62063,pichi mahuida,-39.0626,-63.9792,300,A872847,Rio Colorado - EEA Alto Valle,-39.02,-64.08,9.925942387015711
14007,calamuchita,-32.092862143,-64.563878452,477,A872826,Villa Dolores - EEA Manfredi,-31.94,-65.22,64.26354943604899
6161,carmen de areco,-34.4145467,-59.8540512,237,A872820,Arrecifes - EEA Pergamino,-34.05,-60.14,48.262708111706445
14161,tercero arriba,-32.252891508,-64.251432088,372,A872907,Manfredi - EEA Manfredi,-31.86,-63.75,64.34548270683621
22140,san fernando,-27.925615311,-59.31798172,383,A872893,Basail - EEA Col Benitez,-27.9,-59.3,3.3453333720972553
6266,exaltacion de la cruz,-34.2240131,-59.232576,230,A872834,Lima - EEA San Pedro,-33.97,-59.31,29.067908910376033
2012,comuna 12,-34.560625135,-58.474944746,706,A872995,A872995 - CITEDEF-INTA,-34.56,-58.51,3.217900829982582
42084,lihuel calel,-38.01481736,-65.584818951,300,A872847,Rio Colorado - EEA Alto Valle,-39.02,-64.08,172.2561413068356
6581,necochea,-38.085516,-59.2924177,241,A872808,La Dulce - EEA Balcarce,-38.34,-59.01,37.54582637738632
86084,guasayan,-27.850400925,-65.011795044,67,NH0550,INTA - La Maria S.Estero (EMC),-28.02,-64.23,79.2067588892172
6638,pilar,-34.422005581,-58.952837882,79,A872801,Castelar - ICyA CIRN,-34.61,-58.67,33.30759533650061
46084,general ocampo,-30.878257752,-66.180053711,380,A872889,Catuna - EEA La Rioja,-30.96,-66.17,9.113413617918853
10077,paclin,-27.854732513,-65.717269898,393,A872885,Andalgala - EEA Catamarca,-27.61,-66.33,66.22505553014484
6760,san miguel,-34.575140152,-58.696040989,79,A872801,Castelar - ICyA CIRN,-34.61,-58.67,4.545511307961946
6630,pila,-36.097606751,-58.098558707,472,A872806,Chascomus - EEA Cuenca Salado,-35.74,-58.05,39.920458309033904
78042,magallanes,-49.064224243,-68.324668884,721,A872964,Gob. Gregores - EEA Santa Cruz,-48.81,-70.14,135.96629239866766
30021,diamante,-32.011978035,-60.61726225,50,NH0114,INTA - Parana (EMC),-31.85,-60.54,19.39018776432953
50070,maipu,-32.940932971,-68.642916793,454,A872938,Junín - EEA Junin Mendoza,-33.12,-68.48,25.020804820313884
10091,santa maria,-26.794689249,-66.483496437,393,A872885,Andalgala - EEA Catamarca,-27.61,-66.33,91.61296085710606
38035,ledesma,-23.884973526,-64.673904419,395,A872882,Palma Sola - EEA Yuto,-23.98,-64.3,39.493487270662484
42154,utracan,-37.439212799,-65.023735046,233,A872823,Anguil -EEA Anguil,-36.54,-63.99,135.74582559533067
6007,adolfo alsina,-37.046226443,-63.266821042,678,A872926,Casbas - EEA C. Naredo,-36.86,-62.45,75.62944343380268
14105,rio primero,-30.805935463,-63.173242925,484,A872945,Capilla de Siton - ICyA CIRN,-30.57,-63.65,52.638603745489405
66021,cafayate,-26.10228924,-66.015506705,507,A872877,Trancas - EEA Famaillá,-26.28,-65.27,77.07425197106791
86182,sarmiento,-28.081445866,-63.33466823,719,A872813,Vaca Huañuna - EEA Santiago,-27.47,-63.47,69.05835520974392
18105,mercedes,-29.060000001,-57.760000021,42,NH0498,INTA - Mercedes Ctes (EMC),-29.17,-58.02,28.08989934762561
6483,lobos,-35.2649767,-59.0698098,267,A872810,Llavallol - ICyA CIRN,-34.79,-58.45,77.30426399445635
22063,general guemes,-25.704138218,-61.031502727,713,A872899,J J Castelli - EEA Sáenz Peña,-25.96,-60.56,55.11969109811168
86126,ojo de agua,-29.72712,-63.42753,484,A872945,Capilla de Siton - ICyA CIRN,-30.57,-63.65,95.86407494686864
6049,azul,-37.0314689,-59.6042326,473,A872837,Rauch - EEA Cuenca Salado,-36.8,-59.11,50.98473799675611
6245,ensenada,-34.875848555,-57.933629899,267,A872810,Llavallol - ICyA CIRN,-34.79,-58.45,48.18461449501003
86119,moreno,-27.413858414,-63.065467834,719,A872813,Vaca Huañuna - EEA Santiago,-27.47,-63.47,40.47458352226059
10049,catamarca capital,-28.332107544,-65.894065857,392,A872884,Sumalao - EEA Catamarca,-28.47,-65.73,22.18181684575502
58035,confluencia,-38.752823157,-68.837738725,519,A872947,Plottier - IPAF Patagonia,-38.95,-68.33,49.21144328347409
6231,daireaux,-36.752182007,-61.815643311,678,A872926,Casbas - EEA C. Naredo,-36.86,-62.45,57.85876228676037
50056,lavalle,-32.810136757,-67.221782078,456,A872937,Santa Rosa - EEA Junin Mendoza,-33.18,-67.87,73.16189643976152
90098,tafi del valle,-26.596217,-65.8573856,68,NH0444,INTA - Famailla (EMC),-27.05,-65.42,66.47218875039836
74042,gobernador dupuy,-34.823871612,-66.448936462,433,A872934,La Guevarina - EEA Rama Caida,-34.79,-68.02,143.803191795348
66105,los andes,-24.654569626,-67.303604126,488,A872925,Hornillos - IPAF NOA,-23.66,-65.43,219.97507161734063
2008,comuna 8,-34.674993579,-58.476162985,267,A872810,Llavallol - ICyA CIRN,-34.79,-58.45,12.98137144175262
82014,caseros,-33.2334798,-61.682947,277,A872827,M Juarez - EEA Marcos Juarez,-32.72,-62.11,69.54520126627753
6826,trenque lauquen,-36.0383096,-62.8210281,367,A872906,Trenque Lauquen - EEA Villegas,-35.97,-62.77,8.866553398669808
66112,metan,-25.51643753,-64.605926514,507,A872877,Trancas - EEA Famaillá,-26.28,-65.27,107.62750617343407
86077,general taboada,-28.41299021,-62.79434139,498,A872956,Los Juríes - EEA Quimilí,-28.52,-62.16,63.24602224952672
94014,ushuaia,-54.637686083,-67.766940855,339,A872859,San Sebastian - EEA Santa Cruz,-52.89,-68.45,199.66335015506965
6778,san vicente,-35.183110002,-58.452410024,267,A872810,Llavallol - ICyA CIRN,-34.79,-58.45,43.61230839867492
46077,general lamadrid,-28.976200104,-68.214889526,379,A872888,P de Los Llanos - EEA La Rioja,-30.15,-66.55,207.25906765539622
70056,jachal,-30.20949542,-68.74673275,444,A872929,Pocito - EEA San juan,-31.66,-68.59,161.51108546998125
26077,rawson,-43.315554025,-65.3717721,350,A872855,Puerto Piramides - EEA Chubut,-42.54,-64.29,123.37567025584136
18063,general paz,-27.705562904,-57.794965844,427,A872921,Caa Cati - EEA Corrientes,-27.75,-57.62,17.942001411763556
2004,comuna 4,-34.646413551,-58.384271032,706,A872995,A872995 - CITEDEF-INTA,-34.56,-58.51,14.996571723004465
2010,comuna 10,-34.627686291,-58.483587278,706,A872995,A872995 - CITEDEF-INTA,-34.56,-58.51,7.889925256844895
6028,almirante brown,-34.801558074,-58.391467719,267,A872810,Llavallol - ICyA CIRN,-34.79,-58.45,5.507873133727568
50014,general alvear,-35.16899569,-66.50196772,433,A872934,La Guevarina - EEA Rama Caida,-34.79,-68.02,144.84771347212123
30091,tala,-31.99620378,-59.24649058,687,A872832,Maciá - EEA Conc. del Uruguay,-32.06,-59.6,34.13508059006584
6084,benito juarez,-37.5763984,-60.1392005,33,NH0216,INTA - Barrow (EMC),-38.32,-60.25,83.10896340618034
6385,general viamonte,-35.1438182,-61.2992596,475,A872942,Lincoln - EEA Villegas,-34.84,-61.6,43.47347939132286
6070,baradero,-33.8417492,-59.4518203,231,A872835,Rio Tala - EEA San Pedro,-33.77,-59.63,18.317579116308124
42042,curaco,-38.741340766,-66.436065336,268,A872846,Gral. Roca - EEA Alto Valle,-39.03,-67.74,117.58615514191294
34063,ramon lista,-23.18007636,-62.03032748,395,A872882,Palma Sola - EEA Yuto,-23.98,-64.3,248.0421271219019
6392,general villegas,-34.8579191,-63.1611931,35,NH0038,INTA - Gral Villegas (EMC),-34.92,-62.73,40.01307068507559
6182,coronel de marina l rosales,-38.93877,-61.96122,469,A872839,Loma Chata - EEA Barrow,-38.65,-61.45,54.77352778876868
30008,colon,-31.70735861,-58.28660961,686,A872831,San Salvador - EEA Concordia,-31.65,-58.5,21.20993285819512
18014,beron de astrada,-27.464210061,-57.464626522,427,A872921,Caa Cati - EEA Corrientes,-27.75,-57.62,35.18797554498786
50049,las heras,-32.240089416,-69.455314636,474,A872927,Barreal - EEA San Juan,-31.62,-69.47,68.77300343627684
70133,zonda,-31.774671555,-68.914604187,444,A872929,Pocito - EEA San juan,-31.66,-68.59,33.29043712499332
6505,magdalena,-35.175444975,-57.518948583,472,A872806,Chascomus - EEA Cuenca Salado,-35.74,-58.05,79.0395538807184
46105,independencia,-30.44523,-67.359382,378,A872887,El Portezuelo - EEA La Rioja,-30.84,-66.7,76.88013468438587
66056,general jose de san martin,-22.164599818,-63.9088426,494,A872924,Sta Victoria O -EEA Abra Pampa,-22.25,-64.96,108.79783674535088
50084,rivadavia,-33.474016601,-68.809692869,56,NH0442,INTA - La Consulta (EMC),-33.73,-69.12,40.442623280735894
58112,zapala,-38.822467804,-70.008003235,519,A872947,Plottier - IPAF Patagonia,-38.95,-68.33,146.2764962922455
30028,federacion,-30.706810067,-57.887849136,249,A872803,S.J. Frontera - EEA Concordia,-30.36,-58.32,56.55209676363512
6098,berisso,-34.845876055,-57.879733357,267,A872810,Llavallol - ICyA CIRN,-34.79,-58.45,52.54051152929559
82021,castellanos,-31.381849289,-61.370059967,292,A872862,Rafaela - EEA Rafaela,-31.2,-61.5,23.655656698187794
18161,san roque,-28.883931336,-58.78485627,696,A872918,Pje. Desmochado - EEA B Vista,-28.8,-59.0,22.96369689900556
58028,collon cura,-40.229343414,-70.307525635,269,A872849,Bariloche - EEA Bariloche,-41.12,-71.25,127.00907043914225
82126,san martin,-31.842542648,-61.562709808,291,A872863,San Jorge - EEA Rafaela,-31.95,-61.83,27.952314485993494
6693,roque perez,-35.41999054,-59.665016176,413,A872872,25 de Mayo - EEA Pergamino,-35.48,-60.13,42.735610245227285
6616,pellegrini,-36.3151294,-63.2094531,367,A872906,Trenque Lauquen - EEA Villegas,-35.97,-62.77,55.05344306934612
86175,san martin,-28.2954,-63.86655,67,NH0550,INTA - La Maria S.Estero (EMC),-28.02,-64.23,46.965894802206165
42126,rancul,-35.08643621,-64.92315252,234,A872822,Huinca Renanco - EEA Anguil,-34.77,-64.37,61.53599294230933
34049,pilcomayo,-25.117113113,-58.188476565,425,A872904,Bme de las Casas -EEA Colorado,-25.45,-59.5,137.14291704095908
50077,malargue,-36.479148865,-69.826599121,434,A872935,Malargüe - EEA Rama Caida,-35.38,-69.57,124.13777206279663
42098,loventue,-36.723377228,-65.224739075,233,A872823,Anguil -EEA Anguil,-36.54,-63.99,112.29238263224258
90035,graneros,-27.6423966,-65.5086366,68,NH0444,INTA - Famailla (EMC),-27.05,-65.42,66.226183934541
70021,calingasta,-31.30289373,-69.41260371,474,A872927,Barreal - EEA San Juan,-31.62,-69.47,35.58057918076371
6595,olavarria,-36.8410918,-60.4478581,473,A872837,Rauch - EEA Cuenca Salado,-36.8,-59.11,119.45035338529586
6329,general las heras,-34.8223015,-59.1343749,79,A872801,Castelar - ICyA CIRN,-34.61,-58.67,48.62243720493222
90028,famailla,-27.11478,-65.42955,68,NH0444,INTA - Famailla (EMC),-27.05,-65.42,7.240161600607149
18119,paso de los libres,-29.87793885,-57.53288465,436,A872920,Curuzu Cuatia - EEA Mercedes,-29.87,-58.11,55.76082569341304
6763,san nicolas,-33.6042287,-60.4178226,695,A872948,Villa Ramallo - EEA San Pedro,-33.52,-60.11,30.071174758357984
14049,ischilin,-30.643234976,-64.498512768,478,A872829,Dean Funes - EEA Manfredi,-30.34,-64.32,37.73354373008868
6756,san isidro,-34.479401812,-58.5074044,706,A872995,A872995 - CITEDEF-INTA,-34.56,-58.51,8.944078434149782
14077,pocho,-31.319328308,-65.617858887,380,A872889,Catuna - EEA La Rioja,-30.96,-66.17,66.02789665928225
42063,chical co,-36.160430908,-68.129722595,433,A872934,La Guevarina - EEA Rama Caida,-34.79,-68.02,152.3740839228682
6574,navarro,-35.0117915,-59.4247779,79,A872801,Castelar - ICyA CIRN,-34.61,-58.67,82.19536654166076
18133,san cosme,-27.363933134,-58.661982433,44,NH0487,INTA - Colonia Benitez (EMC),-27.42,-58.93,27.22747849381305
90056,leales,-27.140039444,-65.134643555,348,A872871,Famailla - EEA Famailla,-27.02,-65.38,27.733270835780726
14028,cruz del eje,-31.0893001,-65.0484771,477,A872826,Villa Dolores - EEA Manfredi,-31.94,-65.22,95.7209116798622
14126,san alberto,-31.790562747,-65.167101871,477,A872826,Villa Dolores - EEA Manfredi,-31.94,-65.22,17.309877156509245
22056,general donovan,-27.1738508,-59.26113326,377,A872891,Col Popular - EEA Col Benitez,-27.27,-59.14,16.046582731571874
6252,escobar,-34.3007971,-58.7215474,662,A872802,San Fernando - EEA Delta,-34.25,-58.61,11.715924515248332
18126,saladas,-28.320760537,-58.546449426,41,NH0067,INTA - Bella Vista (EMC),-28.43,-58.92,38.5645630177675
82070,las colonias,-31.6618986,-61.0112577,50,NH0114,INTA - Parana (EMC),-31.85,-60.54,49.279541198123226
10056,el alto,-28.37478,-65.15865,392,A872884,Sumalao - EEA Catamarca,-28.47,-65.73,56.964342183856125
6469,lincoln,-35.4981702,-61.8064882,475,A872942,Lincoln - EEA Villegas,-34.84,-61.6,75.40385361355328
14098,rio cuarto,-32.647510949,-64.221418594,461,A872931,Tilisarao - EEA San Luis,-32.67,-65.23,94.64884317375605
46028,coronel felipe varela,-29.280702591,-68.155670166,379,A872888,P de Los Llanos - EEA La Rioja,-30.15,-66.55,182.81757156396137
58042,chos malal,-37.06895161,-70.38454137,434,A872935,Malargüe - EEA Rama Caida,-35.38,-69.57,201.2091809206535
6707,saladillo,-35.6504504,-59.8096018,413,A872872,25 de Mayo - EEA Pergamino,-35.48,-60.13,34.660043854057875
6322,general la madrid,-37.530620575,-61.569114685,244,A872816,Coronel Suarez - EEA C. Naredo,-37.29,-62.04,49.508124817931055
6280,general alvarado,-38.222449169,-57.895726732,240,A872819,Miramar - EEA Balcarce,-38.15,-57.99,11.52766219317728
6196,coronel pringles,-37.9951979,-60.8897785,33,NH0216,INTA - Barrow (EMC),-38.32,-60.25,66.66285734021619
50028,guaymallen,-32.920761473,-68.707118584,454,A872938,Junín - EEA Junin Mendoza,-33.12,-68.48,30.635706351279204
90119,yerba buena,-26.778963958,-65.285320842,348,A872871,Famailla - EEA Famailla,-27.02,-65.38,28.31510152071607
30063,islas del ibicuy,-33.778770704,-58.54070986,694,A872804,Villa Paranacito-EEA C. del Ur,-33.71,-58.65,12.678272485641658
30077,nogoya,-32.172979005,-59.563413013,687,A872832,Maciá - EEA Conc. del Uruguay,-32.06,-59.6,12.995218086334642
46098,vinchina,-28.508514404,-68.508041382,393,A872885,Andalgala - EEA Catamarca,-27.61,-66.33,236.13317465359694
14133,san javier,-32.01613487,-65.163820049,477,A872826,Villa Dolores - EEA Manfredi,-31.94,-65.22,9.973348468855253
18154,san miguel,-27.781728535,-57.311626934,427,A872921,Caa Cati - EEA Corrientes,-27.75,-57.62,30.600120328050792
10007,ambato,-27.89856,-65.97863,393,A872885,Andalgala - EEA Catamarca,-27.61,-66.33,47.142468220570734
6210,chacabuco,-34.66495,-60.441390001,237,A872820,Arrecifes - EEA Pergamino,-34.05,-60.14,73.63513022441843
54105,san javier,-27.751202788,-55.008955767,58,NH0423,INTA - Cerro Azul (EMC),-27.65,-55.43,43.01619053434392
6077,arrecifes,-33.9628001,-59.8615291,38,NH0492,INTA - San Pedro (EMC),-33.74,-59.8,25.36045475032367
50098,san martin,-33.035971682,-68.47084072,454,A872938,Junín - EEA Junin Mendoza,-33.12,-68.48,9.358389983774607
6651,puan,-38.2787652,-63.308047,518,A872817,Bordenave - EEA Bordenave,-37.75,-63.08,62.01364586300467
70035,caucete,-31.70272711,-68.28587359,431,A872928,Caucete - EEA San Juan,-31.7,-68.29,0.4944250251194123
6091,berazategui,-34.832640469,-58.100841229,267,A872810,Llavallol - ICyA CIRN,-34.79,-58.45,32.29535763277383
66126,oran,-22.9746,-64.41384,494,A872924,Sta Victoria O -EEA Abra Pampa,-22.25,-64.96,97.93707802205573
6770,san pedro,-33.6362648,-59.7862782,38,NH0492,INTA - San Pedro (EMC),-33.74,-59.8,11.576102837399183
86189,silipica,-28.10344,-64.08491,67,NH0550,INTA - La Maria S.Estero (EMC),-28.02,-64.23,16.998314741803192
90063,lules,-26.94954,-65.30289,348,A872871,Famailla - EEA Famailla,-27.02,-65.38,10.933657585518437
18147,san martin,-29.361106301,-56.802426101,42,NH0498,INTA - Mercedes Ctes (EMC),-29.17,-58.02,120.21483404050811
6406,hipolito yrigoyen,-36.1793412,-61.6445672,367,A872906,Trenque Lauquen - EEA Villegas,-35.97,-62.77,104.00387094290275
6270,ezeiza,-34.9645699,-58.5460971,267,A872810,Llavallol - ICyA CIRN,-34.79,-58.45,21.266117613555828
22049,general belgrano,-26.965077007,-61.030713589,723,A872896,Las Breñas - EEA Las Breñas,-27.07,-61.06,11.983644371019466
66070,iruya,-22.7747986,-65.14338644,494,A872924,Sta Victoria O -EEA Abra Pampa,-22.25,-64.96,61.10095087569935
90077,rio chico,-27.4543092,-65.603622,68,NH0444,INTA - Famailla (EMC),-27.05,-65.42,48.350384191155385
6560,moreno,-34.558659572,-58.816301089,79,A872801,Castelar - ICyA CIRN,-34.61,-58.67,14.581049298244345
42140,toay,-36.87195836,-64.78146927,233,A872823,Anguil -EEA Anguil,-36.54,-63.99,79.73924699707763
38070,santa barbara,-24.135713577,-64.588111877,395,A872882,Palma Sola - EEA Yuto,-23.98,-64.3,34.001465702467925
90042,juan b alberdi,-27.60163,-65.5373,68,NH0444,INTA - Famailla (EMC),-27.05,-65.42,62.217977449614494
26105,telsen,-42.770240784,-67.66608429,679,A872856,Paso de Indios - EEA Chubut,-43.86,-69.05,165.1075021128551
58098,picun leufu,-39.183082581,-69.37890625,519,A872947,Plottier - IPAF Patagonia,-38.95,-68.33,94.39309484027531
18098,mburucuya,-27.957044103,-57.937049714,700,A872917,Col. Tabay - EEA Bella Vista,-28.18,-58.16,33.02720527965598
46035,chamical,-30.38569434,-66.26041862,379,A872888,P de Los Llanos - EEA La Rioja,-30.15,-66.55,38.19899348767855
10063,fray mamerto esquiu,-28.301939011,-65.72743988,392,A872884,Sumalao - EEA Catamarca,-28.47,-65.73,18.627167360482215
22147,san lorenzo,-27.252048067,-60.516104742,46,NH0415,INTA - Roque Saenz Peña (EMC),-26.87,-60.45,42.83754310853516
26084,rio senguer,-45.68628224,-70.26062851,282,A872857,Sarmiento - EEA Chubut,-45.6,-69.03,96.41663576796198
18028,concepcion,-28.268879386,-58.121856392,700,A872917,Col. Tabay - EEA Bella Vista,-28.18,-58.16,10.53747432611214
26098,tehuelches,-43.827476502,-69.90713501,495,A872854,Colan Conhué - EEA Esquel,-43.23,-69.92,66.38960461545533
6497,lujan,-34.4619848,-59.1744878,79,A872801,Castelar - ICyA CIRN,-34.61,-58.67,49.13674473252943
2006,comuna 6,-34.6168255,-58.44360311,706,A872995,A872995 - CITEDEF-INTA,-34.56,-58.51,8.766066018941899
86098,juan f ibarra,-27.95003,-61.84724,497,A872955,Quimilí - EEA Quimilí,-27.54,-62.35,67.2426501611702
70049,iglesia,-30.270130157,-69.191162109,474,A872927,Barreal - EEA San Juan,-31.62,-69.47,152.01138301190522
6819,tornquist,-38.41312,-62.79452,447,A872840,Medanos - EEA Hilario Ascasubi,-38.87,-62.66,52.05224816310407
2001,comuna 1,-34.625047864,-58.384387226,706,A872995,A872995 - CITEDEF-INTA,-34.56,-58.51,13.596376814451173
26007,biedma,-42.329257965,-65.631347656,350,A872855,Puerto Piramides - EEA Chubut,-42.54,-64.29,112.82613453841988
6413,junin,-34.5109222,-60.865793,238,A872815,Ferre - EEA Pergamino,-34.1,-61.14,52.10483530148214
26056,languineo,-42.66468787,-70.44354981,274,A872853,Gualjaina - EEA Esquel,-42.73,-70.5,8.604369183274496
54063,iguazu,-25.86430349,-54.55489168,403,A872912,Andresito - EEA Montecarlo,-25.62,-54.07,55.67309141816979
6274,florencio varela,-34.827580703,-58.222912004,267,A872810,Llavallol - ICyA CIRN,-34.79,-58.45,21.19267550575079
6448,laprida,-37.52471,-60.961140001,244,A872816,Coronel Suarez - EEA C. Naredo,-37.29,-62.04,99.00414014337302
14042,general san martin,-32.341236927,-62.996217056,372,A872907,Manfredi - EEA Manfredi,-31.86,-63.75,88.93726497232734
26091,sarmiento,-45.597201576,-69.14443499,282,A872857,Sarmiento - EEA Chubut,-45.6,-69.03,8.933807760179215
66154,san carlos,-25.54455,-65.82056,507,A872877,Trancas - EEA Famaillá,-26.28,-65.27,98.3941463775255
34035,patino,-24.61192,-60.300329999,425,A872904,Bme de las Casas -EEA Colorado,-25.45,-59.5,123.05602004703967
82056,iriondo,-32.929034308,-61.265623766,66,NH0046,UNR - Zavalla (EMC),-33.02,-60.88,37.43318187828194
82084,rosario,-33.079010075,-60.913799568,66,NH0046,UNR - Zavalla (EMC),-33.02,-60.88,7.266154536271494
58077,minas,-37.05693858,-70.77617021,434,A872935,Malargüe - EEA Rama Caida,-35.38,-69.57,215.3708794930839
34021,laishi,-26.652492523,-58.341789248,44,NH0487,INTA - Colonia Benitez (EMC),-27.42,-58.93,103.14346685330884
90021,chicligasta,-27.3126707,-65.4820785,68,NH0444,INTA - Famailla (EMC),-27.05,-65.42,29.748586553554563
6119,brandsen,-34.9854674,-58.1762428,267,A872810,Llavallol - ICyA CIRN,-34.79,-58.45,33.113078975190284
54028,misiones capital,-27.476594927,-55.921699607,386,A872909,V Miguel Lanus -EEA Cerro Azul,-27.43,-55.89,6.039736581331401
82098,san javier,-29.42420679,-59.979554751,294,A872865,Reconquista - EEA Reconquista,-29.26,-59.71,31.88367417129614
6511,maipu,-37.0161454,-57.4884889,368,A872833,Las Armas - EEA Cuenca Salado,-37.09,-57.87,34.91107679143515
6462,leandro n alem,-34.4448464,-61.3192363,238,A872815,Ferre - EEA Pergamino,-34.1,-61.14,41.661949768428535
2014,comuna 14,-34.573899984,-58.422436452,706,A872995,A872995 - CITEDEF-INTA,-34.56,-58.51,8.18201077282299
14021,colon,-31.256244809,-63.953403942,372,A872907,Manfredi - EEA Manfredi,-31.86,-63.75,69.673660190843
78035,lago buenos aires,-46.04208374,-71.658737183,718,A872969,Perito Moreno - EEA Santa Cruz,-46.6,-70.92,84.15913274419701
50105,san rafael,-34.220188141,-67.911636352,432,A872933,Rama Caida - EEA Rama Caida,-34.67,-68.39,66.50110165768646
50091,san carlos,-33.670943614,-68.98052274,483,A872940,Pareditas - EEA Consulta,-33.95,-69.08,32.29396336042192
86014,alberdi,-26.789466858,-62.705165863,250,A872812,Sachayoj - EEA Quimilí,-26.46,-61.81,96.32698588307528
82077,9 de julio,-29.075847203,-61.736250688,515,A872962,La Cigüeña - EEA Reconquista,-29.25,-61.02,72.30500313584103
6602,patagones,-40.8136857,-62.6629984,448,A872842,Stroeder -EEA Hilario Ascasubi,-40.18,-62.61,70.51039532481055
62007,adolfo alsina,-40.633583069,-63.509506226,724,A872970,Valle Inferior - EEA Valle Inf.,-40.8,-63.06,42.23802270292927
62028,conesa,-40.220565796,-64.070602417,711,A872949,Guardia Mitre - EEA V Inferior,-40.43,-63.68,40.53165319536618
6553,monte hermoso,-38.995357691,-61.215201593,468,A872838,Aparicio - EEA Barrow,-38.67,-60.93,43.79285937769972
22084,libertador general san martin,-26.514810346,-59.225561265,51,NH0464,INTA - El Colorado (EMC),-26.3,-59.38,28.352151492570293
18042,empedrado,-27.70578113,-58.68808341,421,A872916,Sombrerito - EEA Corrientes,-27.65,-58.77,10.174303253064236
